f∆∆∆ÊSFV÷
$GPGGA,235949.042,,,,,0,00,,,M,0.0,M,,0000*50
$GPGSA,A,1,,,,,,,,,,,,,,,*1E
$GPRMC,235949.042,V,,,,,,,281006,,,N*46
$GPGGA,235950.043,,,,,0,00,,,M,0.0,M,,0000*59
$GPGSA,A,1,,,,,,,,,,,,,,,*1E
$GPRMC,235950.043,V,,,,,,,281006,,,N*4F
$GPGGA,235951.046,,,,,0,00,,,M,0.0,M,,0000*5D
$GPGSA,A,1,,,,,,,,,,,,,,,*1E
$GPGSV,3,1,12,20,00,000,,10,00,000,,31,00,000,,27,00,000,*7C
$GPGSV,3,2,12,19,00,000,,07,00,000,,04,00,000,,24,00,000,*76
$GPGSV,3,3,12,16,00,000,,28,00,000,,26,00,000,,29,00,000,*78
$GPRMC,235951.046,V,,,,,,,281006,,,N*4B
$GPGGA,235952.043,,,,,0,00,,,M,0.0,M,,0000*5B
$GPGSA,A,1,,,,,,,,,,,,,,,*1E
$GPRMC,235952.043,V,,,,,,,281006,,,N*4D
$GPGGA,235953.043,,,,,0,00,,,M,0.0,M,,0000*5A
$GPGSA,A,1,,,,,,,,,,,,,,,*1E
$GPRMC,235953.043,V,,,,,,,281006,,,N*4C
$GPGGA,235954.046,,,,,0,00,,,M,0.0,M,,0000*58
$GPGSA,A,1,,,,,,,,,,,,,,,*1E
$GPRMC,235954.046,V,,,,,,,281006,,,N*4E
$GPGGA,235955.042,,,,,0,00,,,M,0.0,M,,0000*5D
$GPGSA,A,1,,,,,,,,,,,,,,,*1E
$GPRMC,235955.042,V,,,,,,,281006,,,N*4B
$GPGGA,235956.046,,,,,0,00,,,M,0.0,M,,0000*5A
$GPGSA,A,1,,,,,,,,,,,,,,,*1E
$GPGSV,3,1,12,20,00,000,,10,00,000,,31,00,000,,27,00,000,*7C
$GPGSV,3,2,12,19,00,000,,07,00,000,,04,00,000,,24,00,000,*76
$GPGSV,3,3,12,16,00,000,,28,00,000,,26,00,000,,29,00,000,*78
$GPRMC,235956.046,V,,,,,,,281006,,,N*4C
$GPGGA,235957.046,,,,,0,00,,,M,0.0,M,,0000*5B
$GPGSA,A,1,,,,,,,,,,,,,,,*1E
$GPRMC,235957.046,V,,,,,,,281006,,,N*4D
$GPGGA,235958.043,,,,,0,00,,,M,0.0,M,,0000*51
$GPGSA,A,1,,,,,,,,,,,,,,,*1E
$GPRMC,235958.043,V,,,,,,,281006,,,N*47
$GPGGA,235959.042,,,,,0,00,,,M,0.0,M,,0000*51
$GPGSA,A,1,,,,,,,,,,,,,,,*1E
$GPRMC,235959.042,V,,,,,,,281006,,,N*47
$GPGGA,000000.046,,,,,0,00,,,M,0.0,M,,0000*54
$GPGSA,A,1,,,,,,,,,,,,,,,*1E
$GPRMC,000000.046,V,,,,,,,291006,,,N*43
$GPGGA,000001.043,,,,,0,00,,,M,0.0,M,,0000*50
$GPGSA,A,1,,,,,,,,,,,,,,,*1E
$GPGSV,3,1,12,20,00,000,,10,00,000,,31,00,000,,27,00,000,*7C
$GPGSV,3,2,12,19,00,000,,07,00,000,,04,00,000,,24,00,000,*76
$GPGSV,3,3,12,16,00,000,,28,00,000,,26,00,000,,29,00,000,*78
$GPRMC,000001.043,V,,,,,,,100313,,,N*4B
$GPGGA,000002.043,,,,,0,00,,,M,0.0,M,,0000*53
$GPGSA,A,1,,,,,,,,,,,,,,,*1E
$GPRMC,000002.043,V,,,,,,,100313,,,N*48
$GPGGA,164324.193,,,,,0,00,,,M,0.0,M,,0000*5B
$GPGSA,A,1,,,,,,,,,,,,,,,*1E
$GPRMC,164324.193,V,,,,,,,100313,,,N*40
$GPGGA,164325.193,,,,,0,00,,,M,0.0,M,,0000*5A
$GPGSA,A,1,,,,,,,,,,,,,,,*1E
$GPRMC,164325.193,V,,,,,,,100313,,,N*41
$GPGGA,164326.193,,,,,0,00,,,M,0.0,M,,0000*59
$GPGSA,A,1,,,,,,,,,,,,,,,*1E
$GPRMC,164326.193,V,,,,,,,100313,,,N*42
$GPGGA,164327.193,,,,,0,00,,,M,0.0,M,,0000*58
$GPGSA,A,1,,,,,,,,,,,,,,,*1E
$GPGSV,3,1,12,21,56,093,37,09,52,115,33,26,50,015,,14,36,231,44*78
$GPGSV,3,2,12,15,35,111,,22,31,333,45,18,27,320,,31,25,061,*77
$GPGSV,3,3,12,25,13,200,,05,11,197,,02,10,129,,19,10,315,*70
$GPRMC,164327.193,V,,,,,,,100313,,,N*43
$GPGGA,164328.189,,,,,0,00,,,M,0.0,M,,0000*5C
$GPGSA,A,1,,,,,,,,,,,,,,,*1E
$GPRMC,164328.189,V,,,,,,,100313,,,N*47
$GPGGA,164329.189,,,,,0,00,,,M,0.0,M,,0000*5D
$GPGSA,A,1,,,,,,,,,,,,,,,*1E
$GPRMC,164329.189,V,,,,,,,100313,,,N*46
$GPGGA,164330.193,,,,,0,00,,,M,0.0,M,,0000*5E
$GPGSA,A,1,,,,,,,,,,,,,,,*1E
$GPRMC,164330.193,V,,,,,,,100313,,,N*45
$GPGGA,164331.189,,,,,0,00,,,M,0.0,M,,0000*54
$GPGSA,A,1,,,,,,,,,,,,,,,*1E
$GPRMC,164331.189,V,,,,,,,100313,,,N*4F
$GPGGA,164332.189,,,,,0,00,,,M,0.0,M,,0000*57
$GPGSA,A,1,,,,,,,,,,,,,,,*1E
$GPGSV,3,1,12,21,56,093,32,09,52,115,34,26,50,015,,14,36,231,36*7F
$GPGSV,3,2,12,15,35,111,,22,31,333,45,18,27,320,,31,25,061,*77
$GPGSV,3,3,12,25,13,200,,05,11,197,,02,10,129,,19,10,315,*70
$GPRMC,164332.189,V,,,,,,,100313,,,N*4C
$GPGGA,164333.193,,,,,0,00,,,M,0.0,M,,0000*5D
$GPGSA,A,1,,,,,,,,,,,,,,,*1E
$GPRMC,164333.193,V,,,,,,,100313,,,N*46
$GPGGA,164334.193,,,,,0,00,,,M,0.0,M,,0000*5A
$GPGSA,A,1,,,,,,,,,,,,,,,*1E
$GPRMC,164334.193,V,,,,,,,100313,,,N*41
$GPGGA,164335.193,,,,,0,00,,,M,0.0,M,,0000*5B
$GPGSA,A,1,,,,,,,,,,,,,,,*1E
$GPRMC,164335.193,V,,,,,,,100313,,,N*40
$GPGGA,164336.193,,,,,0,00,,,M,0.0,M,,0000*58
$GPGSA,A,1,,,,,,,,,,,,,,,*1E
$GPRMC,164336.193,V,,,,,,,100313,,,N*43
$GPGGA,164337.193,,,,,0,00,,,M,0.0,M,,0000*59
$GPGSA,A,1,,,,,,,,,,,,,,,*1E
$GPGSV,3,1,12,21,56,093,31,09,52,115,38,26,50,015,,14,36,231,41*70
$GPGSV,3,2,12,15,35,111,35,22,31,333,43,18,27,320,32,31,25,061,*76
$GPGSV,3,3,12,25,13,200,,05,11,197,,02,10,129,,19,10,315,*70
$GPRMC,164337.193,V,,,,,,,100313,,,N*42
$GPGGA,164338.189,,,,,0,00,,,M,0.0,M,,0000*5D
$GPGSA,A,1,,,,,,,,,,,,,,,*1E
$GPRMC,164338.189,V,,,,,,,100313,,,N*46
$GPGGA,164339.189,,,,,0,00,,,M,0.0,M,,0000*5C
$GPGSA,A,1,,,,,,,,,,,,,,,*1E
$GPRMC,164339.189,V,,,,,,,100313,,,N*47
$GPGGA,164340.193,,,,,0,00,,,M,0.0,M,,0000*59
$GPGSA,A,1,,,,,,,,,,,,,,,*1E
$GPRMC,164340.193,V,,,,,,,100313,,,N*42
$GPGGA,164341.193,,,,,0,00,,,M,0.0,M,,0000*58
$GPGSA,A,1,,,,,,,,,,,,,,,*1E
$GPRMC,164341.193,V,,,,,,,100313,,,N*43
$GPGGA,164342.189,,,,,0,00,,,M,0.0,M,,0000*50
$GPGSA,A,1,,,,,,,,,,,,,,,*1E
$GPGSV,3,1,12,21,56,093,31,09,52,115,35,26,50,015,,14,36,231,42*7E
$GPGSV,3,2,12,15,35,111,34,22,31,333,44,18,27,320,36,31,25,061,*74
$GPGSV,3,3,12,25,13,200,,05,11,197,,02,10,129,,19,10,315,*70
$GPRMC,164342.189,V,,,,,,,100313,,,N*4B
$GPGGA,164343.193,,,,,0,00,,,M,0.0,M,,0000*5A
$GPGSA,A,1,,,,,,,,,,,,,,,*1E
$GPRMC,164343.193,V,,,,,,,100313,,,N*41
$GPGGA,164344.193,,,,,0,00,,,M,0.0,M,,0000*5D
$GPGSA,A,1,,,,,,,,,,,,,,,*1E
$GPRMC,164344.193,V,,,,,,,100313,,,N*46
$GPGGA,164345.193,,,,,0,00,,,M,0.0,M,,0000*5C
$GPGSA,A,1,,,,,,,,,,,,,,,*1E
$GPRMC,164345.193,V,,,,,,,100313,,,N*47
$GPGGA,164346.189,,,,,0,00,,,M,0.0,M,,0000*54
$GPGSA,A,1,,,,,,,,,,,,,,,*1E
$GPRMC,164346.189,V,,,,,,,100313,,,N*4F
$GPGGA,164347.193,,,,,0,00,,,M,0.0,M,,0000*5E
$GPGSA,A,1,,,,,,,,,,,,,,,*1E
$GPGSV,3,1,12,21,56,093,30,09,52,115,41,26,50,015,,14,36,231,33*7A
$GPGSV,3,2,12,15,35,111,44,22,31,333,42,18,27,320,35,31,25,061,*76
$GPGSV,3,3,12,25,13,200,,05,11,197,,02,10,129,,19,10,315,*70
$GPRMC,164347.193,V,,,,,,,100313,,,N*45
$GPGGA,164348.193,,,,,0,00,,,M,0.0,M,,0000*51
$GPGSA,A,1,,,,,,,,,,,,,,,*1E
$GPRMC,164348.193,V,,,,,,,100313,,,N*4A
$GPGGA,164349.193,,,,,0,00,,,M,0.0,M,,0000*50
$GPGSA,A,1,,,,,,,,,,,,,,,*1E
$GPRMC,164349.193,V,,,,,,,100313,,,N*4B
$GPGGA,164350.189,,,,,0,00,,,M,0.0,M,,0000*53
$GPGSA,A,1,,,,,,,,,,,,,,,*1E
$GPRMC,164350.189,V,,,,,,,100313,,,N*48
$GPGGA,164351.189,,,,,0,00,,,M,0.0,M,,0000*52
$GPGSA,A,1,,,,,,,,,,,,,,,*1E
$GPRMC,164351.189,V,,,,,,,100313,,,N*49
$GPGGA,164352.193,,,,,0,00,,,M,0.0,M,,0000*5A
$GPGSA,A,1,,,,,,,,,,,,,,,*1E
$GPGSV,3,1,12,21,56,093,32,09,52,115,43,26,50,015,,14,36,231,32*7B
$GPGSV,3,2,12,15,35,111,39,22,31,333,28,18,27,320,29,31,25,061,*7D
$GPGSV,3,3,12,25,13,200,,05,11,197,,02,10,129,,19,10,315,*70
$GPRMC,164352.193,V,,,,,,,100313,,,N*41
$GPGGA,164353.189,,,,,0,00,,,M,0.0,M,,0000*50
$GPGSA,A,1,,,,,,,,,,,,,,,*1E
$GPRMC,164353.189,V,,,,,,,100313,,,N*4B
$GPGGA,164354.189,,,,,0,00,,,M,0.0,M,,0000*57
$GPGSA,A,1,,,,,,,,,,,,,,,*1E
$GPRMC,164354.189,V,,,,,,,100313,,,N*4C
$GPGGA,164355.193,,,,,0,00,,,M,0.0,M,,0000*5D
$GPGSA,A,1,,,,,,,,,,,,,,,*1E
$GPRMC,164355.193,V,,,,,,,100313,,,N*46
$GPGGA,164356.193,,,,,0,00,,,M,0.0,M,,0000*5E
$GPGSA,A,1,,,,,,,,,,,,,,,*1E
$GPRMC,164356.193,V,,,,,,,100313,,,N*45
$GPGGA,164357.193,,,,,0,00,,,M,0.0,M,,0000*5F
$GPGSA,A,1,,,,,,,,,,,,,,,*1E
$GPGSV,3,1,12,21,56,093,33,09,52,115,29,26,50,015,,14,36,231,26*73
$GPGSV,3,2,12,15,35,111,31,22,31,333,25,18,27,320,29,31,25,061,*78
$GPGSV,3,3,12,25,13,200,,05,11,197,,02,10,129,,19,10,315,*70
$GPRMC,164357.193,V,,,,,,,100313,,,N*44
$GPGGA,164358.189,,,,,0,00,,,M,0.0,M,,0000*5B
$GPGSA,A,1,,,,,,,,,,,,,,,*1E
$GPRMC,164358.189,V,,,,,,,100313,,,N*40
$GPGGA,164359.193,,,,,0,00,,,M,0.0,M,,0000*51
$GPGSA,A,1,,,,,,,,,,,,,,,*1E
$GPRMC,164359.193,V,,,,,,,100313,,,N*4A
$GPGGA,164400.193,,,,,0,00,,,M,0.0,M,,0000*5A
$GPGSA,A,1,,,,,,,,,,,,,,,*1E
$GPRMC,164400.193,V,,,,,,,100313,,,N*41
$GPGGA,164401.193,,,,,0,00,,,M,0.0,M,,0000*5B
$GPGSA,A,1,,,,,,,,,,,,,,,*1E
$GPRMC,164401.193,V,,,,,,,100313,,,N*40
$GPGGA,164402.189,,,,,0,00,,,M,0.0,M,,0000*53
$GPGSA,A,1,,,,,,,,,,,,,,,*1E
$GPGSV,3,1,12,21,56,093,35,09,52,115,23,26,50,015,,14,36,231,22*7B
$GPGSV,3,2,12,15,35,111,30,22,31,333,26,18,27,320,33,31,25,061,*71
$GPGSV,3,3,12,25,13,200,,05,11,197,,02,10,129,,19,10,315,*70
$GPRMC,164402.189,V,,,,,,,100313,,,N*48
$GPGGA,164403.193,,,,,0,00,,,M,0.0,M,,0000*59
$GPGSA,A,1,,,,,,,,,,,,,,,*1E
$GPRMC,164403.193,V,,,,,,,100313,,,N*42
$GPGGA,164404.193,,,,,0,00,,,M,0.0,M,,0000*5E
$GPGSA,A,1,,,,,,,,,,,,,,,*1E
$GPRMC,164404.193,V,,,,,,,100313,,,N*45
$GPGGA,164405.193,,,,,0,00,,,M,0.0,M,,0000*5F
$GPGSA,A,1,,,,,,,,,,,,,,,*1E
$GPRMC,164405.193,V,,,,,,,100313,,,N*44
$GPGGA,164406.189,,,,,0,00,,,M,0.0,M,,0000*57
$GPGSA,A,1,,,,,,,,,,,,,,,*1E
$GPRMC,164406.189,V,,,,,,,100313,,,N*4C
$GPGGA,164407.193,,,,,0,00,,,M,0.0,M,,0000*5D
$GPGSA,A,1,,,,,,,,,,,,,,,*1E
$GPGSV,3,1,12,21,56,093,35,09,52,115,39,26,50,015,,14,36,231,24*76
$GPGSV,3,2,12,15,35,111,41,22,31,333,30,18,27,320,29,31,25,061,*7B
$GPGSV,3,3,12,25,13,200,,05,11,197,,02,10,129,,19,10,315,*70
$GPRMC,164407.193,V,,,,,,,100313,,,N*46
$GPGGA,164408.193,,,,,0,00,,,M,0.0,M,,0000*52
$GPGSA,A,1,,,,,,,,,,,,,,,*1E
$GPRMC,164408.193,V,,,,,,,100313,,,N*49
$GPGGA,164409.189,,,,,0,00,,,M,0.0,M,,0000*58
$GPGSA,A,1,,,,,,,,,,,,,,,*1E
$GPRMC,164409.189,V,,,,,,,100313,,,N*43
$GPGGA,164410.189,,,,,0,00,,,M,0.0,M,,0000*50
$GPGSA,A,1,,,,,,,,,,,,,,,*1E
$GPRMC,164410.189,V,,,,,,,100313,,,N*4B
$GPGGA,164411.189,,,,,0,00,,,M,0.0,M,,0000*51
$GPGSA,A,1,,,,,,,,,,,,,,,*1E
$GPRMC,164411.189,V,,,,,,,100313,,,N*4A
$GPGGA,164412.193,,,,,0,00,,,M,0.0,M,,0000*59
$GPGSA,A,1,,,,,,,,,,,,,,,*1E
$GPGSV,3,1,12,21,56,093,36,09,52,115,27,26,50,015,,14,36,231,32*7D
$GPGSV,3,2,12,15,35,111,29,22,31,333,27,18,27,320,22,31,25,061,*78
$GPGSV,3,3,12,25,13,200,,05,11,197,,02,10,129,,19,10,315,*70
$GPRMC,164412.193,V,,,,,,,100313,,,N*42
$GPGGA,164413.189,,,,,0,00,,,M,0.0,M,,0000*53
$GPGSA,A,1,,,,,,,,,,,,,,,*1E
$GPRMC,164413.189,V,,,,,,,100313,,,N*48
$GPGGA,164414.193,,,,,0,00,,,M,0.0,M,,0000*5F
$GPGSA,A,1,,,,,,,,,,,,,,,*1E
$GPRMC,164414.193,V,,,,,,,100313,,,N*44
$GPGGA,164415.189,,,,,0,00,,,M,0.0,M,,0000*55
$GPGSA,A,1,,,,,,,,,,,,,,,*1E
$GPRMC,164415.189,V,,,,,,,100313,,,N*4E
$GPGGA,164416.193,,,,,0,00,,,M,0.0,M,,0000*5D
$GPGSA,A,1,,,,,,,,,,,,,,,*1E
$GPRMC,164416.193,V,,,,,,,100313,,,N*46
$GPGGA,164417.193,,,,,0,00,,,M,0.0,M,,0000*5C
$GPGSA,A,1,,,,,,,,,,,,,,,*1E
$GPGSV,3,1,12,21,56,093,34,09,52,115,39,26,50,015,,14,36,231,31*73
$GPGSV,3,2,12,15,35,111,38,22,31,333,30,18,27,320,25,31,25,061,*79
$GPGSV,3,3,12,25,13,200,,05,11,197,,02,10,129,,19,10,315,*70
$GPRMC,164417.193,V,,,,,,,100313,,,N*47
$GPGGA,164418.189,,,,,0,00,,,M,0.0,M,,0000*58
$GPGSA,A,1,,,,,,,,,,,,,,,*1E
$GPRMC,164418.189,V,,,,,,,100313,,,N*43
$GPGGA,164419.193,,,,,0,00,,,M,0.0,M,,0000*52
$GPGSA,A,1,,,,,,,,,,,,,,,*1E
$GPRMC,164419.193,V,,,,,,,100313,,,N*49
$GPGGA,164420.193,,,,,0,00,,,M,0.0,M,,0000*58
$GPGSA,A,1,,,,,,,,,,,,,,,*1E
$GPRMC,164420.193,V,,,,,,,100313,,,N*43
$GPGGA,164421.193,,,,,0,00,,,M,0.0,M,,0000*59
$GPGSA,A,1,,,,,,,,,,,,,,,*1E
$GPRMC,164421.193,V,,,,,,,100313,,,N*42
$GPGGA,164422.189,,,,,0,00,,,M,0.0,M,,0000*51
$GPGSA,A,1,,,,,,,,,,,,,,,*1E
$GPGSV,3,1,12,21,56,093,33,09,52,115,34,26,50,015,,14,36,231,28*71
$GPGSV,3,2,12,15,35,111,41,22,31,333,31,18,27,320,26,31,25,061,*75
$GPGSV,3,3,12,25,13,200,,05,11,197,,02,10,129,,19,10,315,*70
$GPRMC,164422.189,V,,,,,,,100313,,,N*4A
$GPGGA,164423.193,,,,,0,00,,,M,0.0,M,,0000*5B
$GPGSA,A,1,,,,,,,,,,,,,,,*1E
$GPRMC,164423.193,V,,,,,,,100313,,,N*40
$GPGGA,164424.193,,,,,0,00,,,M,0.0,M,,0000*5C
$GPGSA,A,1,,,,,,,,,,,,,,,*1E
$GPRMC,164424.193,V,,,,,,,100313,,,N*47
$GPGGA,164425.193,,,,,0,00,,,M,0.0,M,,0000*5D
$GPGSA,A,1,,,,,,,,,,,,,,,*1E
$GPRMC,164425.193,V,,,,,,,100313,,,N*46
$GPGGA,164426.189,,,,,0,00,,,M,0.0,M,,0000*55
$GPGSA,A,1,,,,,,,,,,,,,,,*1E
$GPRMC,164426.189,V,,,,,,,100313,,,N*4E
$GPGGA,164427.193,,,,,0,00,,,M,0.0,M,,0000*5F
$GPGSA,A,1,,,,,,,,,,,,,,,*1E
$GPGSV,3,1,12,21,56,093,33,09,52,115,38,26,50,015,,14,36,231,27*72
$GPGSV,3,2,12,15,35,111,38,22,31,333,32,18,27,320,30,31,25,061,*7F
$GPGSV,3,3,12,25,13,200,,05,11,197,,02,10,129,,19,10,315,*70
$GPRMC,164427.193,V,,,,,,,100313,,,N*44
$GPGGA,164428.193,,,,,0,00,,,M,0.0,M,,0000*50
$GPGSA,A,1,,,,,,,,,,,,,,,*1E
$GPRMC,164428.193,V,,,,,,,100313,,,N*4B
$GPGGA,164429.193,,,,,0,00,,,M,0.0,M,,0000*51
$GPGSA,A,1,,,,,,,,,,,,,,,*1E
$GPRMC,164429.193,V,,,,,,,100313,,,N*4A
$GPGGA,164430.189,,,,,0,00,,,M,0.0,M,,0000*52
$GPGSA,A,1,,,,,,,,,,,,,,,*1E
$GPRMC,164430.189,V,,,,,,,100313,,,N*49
$GPGGA,164431.193,,,,,0,00,,,M,0.0,M,,0000*58
$GPGSA,A,1,,,,,,,,,,,,,,,*1E
$GPRMC,164431.193,V,,,,,,,100313,,,N*43
$GPGGA,164432.193,,,,,0,00,,,M,0.0,M,,0000*5B
$GPGSA,A,1,,,,,,,,,,,,,,,*1E
$GPGSV,3,1,12,21,56,093,33,09,52,115,40,26,50,015,,14,36,231,28*72
$GPGSV,3,2,12,15,35,111,39,22,31,333,35,18,27,320,34,31,25,061,*7D
$GPGSV,3,3,12,25,13,200,,05,11,197,,02,10,129,,19,10,315,*70
$GPRMC,164432.193,V,,,,,,,100313,,,N*40
$GPGGA,164433.193,,,,,0,00,,,M,0.0,M,,0000*5A
$GPGSA,A,1,,,,,,,,,,,,,,,*1E
$GPRMC,164433.193,V,,,,,,,100313,,,N*41
$GPGGA,164434.189,,,,,0,00,,,M,0.0,M,,0000*56
$GPGSA,A,1,,,,,,,,,,,,,,,*1E
$GPRMC,164434.189,V,,,,,,,100313,,,N*4D
$GPGGA,164435.193,,,,,0,00,,,M,0.0,M,,0000*5C
$GPGSA,A,1,,,,,,,,,,,,,,,*1E
$GPRMC,164435.193,V,,,,,,,100313,,,N*47
$GPGGA,164436.193,,,,,0,00,,,M,0.0,M,,0000*5F
$GPGSA,A,1,,,,,,,,,,,,,,,*1E
$GPRMC,164436.193,V,,,,,,,100313,,,N*44
$GPGGA,164437.193,,,,,0,00,,,M,0.0,M,,0000*5E
$GPGSA,A,1,,,,,,,,,,,,,,,*1E
$GPGSV,3,1,12,21,56,093,27,09,52,115,42,26,50,015,,14,36,231,30*7C
$GPGSV,3,2,12,15,35,111,41,22,31,333,34,18,27,320,28,31,25,061,*7E
$GPGSV,3,3,12,25,13,200,,05,11,197,,02,10,129,,19,10,315,*70
$GPRMC,164437.193,V,,,,,,,100313,,,N*45
$GPGGA,164438.189,,,,,0,00,,,M,0.0,M,,0000*5A
$GPGSA,A,1,,,,,,,,,,,,,,,*1E
$GPRMC,164438.189,V,,,,,,,100313,,,N*41
$GPGGA,164439.193,,,,,0,00,,,M,0.0,M,,0000*50
$GPGSA,A,1,,,,,,,,,,,,,,,*1E
$GPRMC,164439.193,V,,,,,,,100313,,,N*4B
$GPGGA,164440.193,,,,,0,00,,,M,0.0,M,,0000*5E
$GPGSA,A,1,,,,,,,,,,,,,,,*1E
$GPRMC,164440.193,V,,,,,,,100313,,,N*45
$GPGGA,164441.193,,,,,0,00,,,M,0.0,M,,0000*5F
$GPGSA,A,1,,,,,,,,,,,,,,,*1E
$GPRMC,164441.193,V,,,,,,,100313,,,N*44
$GPGGA,164442.189,,,,,0,00,,,M,0.0,M,,0000*57
$GPGSA,A,1,,,,,,,,,,,,,,,*1E
$GPGSV,3,1,12,21,56,093,31,09,52,115,43,26,50,015,,14,36,231,37*7D
$GPGSV,3,2,12,15,35,111,41,22,31,333,39,18,27,320,26,31,25,061,*7D
$GPGSV,3,3,12,25,13,200,,05,11,197,,02,10,129,,19,10,315,*70
$GPRMC,164442.189,V,,,,,,,100313,,,N*4C
$GPGGA,164443.189,,,,,0,00,,,M,0.0,M,,0000*56
$GPGSA,A,1,,,,,,,,,,,,,,,*1E
$GPRMC,164443.189,V,,,,,,,100313,,,N*4D
$GPGGA,164444.193,,,,,0,00,,,M,0.0,M,,0000*5A
$GPGSA,A,1,,,,,,,,,,,,,,,*1E
$GPRMC,164444.193,V,,,,,,,100313,,,N*41
$GPGGA,164445.193,,,,,0,00,,,M,0.0,M,,0000*5B
$GPGSA,A,1,,,,,,,,,,,,,,,*1E
$GPRMC,164445.193,V,,,,,,,100313,,,N*40
$GPGGA,164446.189,,,,,0,00,,,M,0.0,M,,0000*53
$GPGSA,A,1,,,,,,,,,,,,,,,*1E
$GPRMC,164446.189,V,,,,,,,100313,,,N*48
$GPGGA,164447.193,,,,,0,00,,,M,0.0,M,,0000*59
$GPGSA,A,1,,,,,,,,,,,,,,,*1E
$GPGSV,3,1,12,21,56,093,31,09,52,115,44,26,50,015,,14,36,231,36*7B
$GPGSV,3,2,12,15,35,111,42,22,31,333,39,18,27,320,32,31,25,061,*7B
$GPGSV,3,3,12,25,13,200,,05,11,197,,02,10,129,,19,10,315,*70
$GPRMC,164447.193,V,,,,,,,100313,,,N*42
$GPGGA,164448.193,,,,,0,00,,,M,0.0,M,,0000*56
$GPGSA,A,1,,,,,,,,,,,,,,,*1E
$GPRMC,164448.193,V,,,,,,,100313,,,N*4D
$GPGGA,164449.193,,,,,0,00,,,M,0.0,M,,0000*57
$GPGSA,A,1,,,,,,,,,,,,,,,*1E
$GPRMC,164449.193,V,,,,,,,100313,,,N*4C
$GPGGA,164450.189,,,,,0,00,,,M,0.0,M,,0000*54
$GPGSA,A,1,,,,,,,,,,,,,,,*1E
$GPRMC,164450.189,V,,,,,,,100313,,,N*4F
$GPGGA,164451.193,,,,,0,00,,,M,0.0,M,,0000*5E
$GPGSA,A,1,,,,,,,,,,,,,,,*1E
$GPRMC,164451.193,V,,,,,,,100313,,,N*45
$GPGGA,164452.193,,,,,0,00,,,M,0.0,M,,0000*5D
$GPGSA,A,1,,,,,,,,,,,,,,,*1E
$GPGSV,3,1,12,21,56,093,31,09,52,115,44,26,50,015,,14,36,231,37*7A
$GPGSV,3,2,12,15,35,111,41,22,31,333,45,18,27,320,37,31,25,061,*76
$GPGSV,3,3,12,25,13,200,,05,11,197,,02,10,129,,19,10,315,*70
$GPRMC,164452.193,V,,,,,,,100313,,,N*46
$GPGGA,164453.189,,,,,0,00,,,M,0.0,M,,0000*57
$GPGSA,A,1,,,,,,,,,,,,,,,*1E
$GPRMC,164453.189,V,,,,,,,100313,,,N*4C
$GPGGA,164454.185,,,,,0,00,,,M,0.0,M,,0000*5C
$GPGSA,A,1,,,,,,,,,,,,,,,*1E
$GPRMC,164454.185,V,,,,,,,100313,,,N*47
$GPGGA,164455.185,,,,,0,00,,,M,0.0,M,,0000*5D
$GPGSA,A,1,,,,,,,,,,,,,,,*1E
$GPRMC,164455.185,V,,,,,,,100313,,,N*46
$GPGGA,164456.189,,,,,0,00,,,M,0.0,M,,0000*52
$GPGSA,A,1,,,,,,,,,,,,,,,*1E
$GPRMC,164456.189,V,,,,,,,100313,,,N*49
$GPGGA,164457.189,,,,,0,00,,,M,0.0,M,,0000*53
$GPGSA,A,1,,,,,,,,,,,,,,,*1E
$GPGSV,3,1,12,21,56,093,31,09,52,115,41,26,50,015,,14,36,231,25*7C
$GPGSV,3,2,12,15,35,111,36,22,31,333,41,18,27,320,35,31,25,061,*70
$GPGSV,3,3,12,25,13,200,,05,11,197,,02,10,129,,19,10,315,*70
$GPRMC,164457.189,V,,,,,,,100313,,,N*48
$GPGGA,164458.192,4258.0026,N,07253.5950,W,1,03,2.6,33.4,M,-33.4,M,,0000*51
$GPGSA,A,2,22,14,15,,,,,,,,,,2.8,2.6,1.0*3D
$GPRMC,164458.192,A,4258.0026,N,07253.5950,W,0.99,202.08,100313,,,A*71
$GPGGA,164459.192,4257.9981,N,07253.5916,W,1,03,2.6,33.4,M,-33.4,M,,0000*50
$GPGSA,A,2,22,14,15,,,,,,,,,,2.8,2.6,1.0*3D
$GPRMC,164459.192,A,4257.9981,N,07253.5916,W,0.18,143.71,100313,,,A*71
$GPGGA,164500.196,4258.0013,N,07253.5962,W,1,03,2.6,33.4,M,-33.4,M,,0000*5E
$GPGSA,A,2,22,14,15,,,,,,,,,,2.8,2.6,1.0*3D
$GPRMC,164500.196,A,4258.0013,N,07253.5962,W,0.49,296.55,100313,,,A*76
$GPGGA,164501.196,4258.0033,N,07253.5964,W,1,03,2.6,33.4,M,-33.4,M,,0000*5B
$GPGSA,A,2,22,14,15,,,,,,,,,,2.8,2.6,1.0*3D
$GPRMC,164501.196,A,4258.0033,N,07253.5964,W,1.44,341.59,100313,,,A*78
$GPGGA,164502.192,4258.0040,N,07253.5965,W,1,03,2.6,33.4,M,-33.4,M,,0000*59
$GPGSA,A,2,22,14,15,,,,,,,,,,2.8,2.6,1.0*3D
$GPGSV,3,1,12,22,43,302,41,15,35,061,37,14,27,252,32,26,65,267,*7A
$GPGSV,3,2,12,31,64,130,,21,41,194,30,09,32,191,41,18,24,299,35*7F
$GPGSV,3,3,12,19,08,309,,16,05,122,,28,01,028,,03,01,311,*73
$GPRMC,164502.192,A,4258.0040,N,07253.5965,W,0.92,326.10,100313,,,A*7C
$GPGGA,164503.196,4258.0007,N,07253.5966,W,1,03,2.6,33.4,M,-33.4,M,,0000*5C
$GPGSA,A,2,22,14,15,,,,,,,,,,2.8,2.6,1.0*3D
$GPRMC,164503.196,A,4258.0007,N,07253.5966,W,1.11,323.04,100313,,,A*73
$GPGGA,164504.196,4258.0093,N,07253.5963,W,1,03,2.6,33.4,M,-33.4,M,,0000*53
$GPGSA,A,2,22,14,15,,,,,,,,,,2.8,2.6,1.0*3D
$GPRMC,164504.196,A,4258.0093,N,07253.5963,W,0.72,326.89,100313,,,A*78
$GPGGA,164505.196,4258.0098,N,07253.5964,W,1,03,2.6,33.4,M,-33.4,M,,0000*5E
$GPGSA,A,2,22,14,15,,,,,,,,,,2.8,2.6,1.0*3D
$GPRMC,164505.196,A,4258.0098,N,07253.5964,W,0.50,337.12,100313,,,A*77
$GPGGA,164506.192,4258.0106,N,07253.5966,W,1,03,2.6,33.4,M,-33.4,M,,0000*5D
$GPGSA,A,2,22,14,15,,,,,,,,,,2.8,2.6,1.0*3D
$GPRMC,164506.192,A,4258.0106,N,07253.5966,W,0.80,325.84,100313,,,A*75
$GPGGA,164507.196,4258.0102,N,07253.5966,W,1,03,2.6,33.4,M,-33.4,M,,0000*5C
$GPGSA,A,2,22,14,15,,,,,,,,,,2.8,2.6,1.0*3D
$GPGSV,3,1,12,22,43,302,39,15,35,061,37,14,27,252,38,26,65,267,*7F
$GPGSV,3,2,12,31,64,130,,21,41,194,30,09,32,191,37,18,24,299,34*7F
$GPGSV,3,3,12,19,08,309,,16,05,122,,28,01,028,,03,01,311,*73
$GPRMC,164507.196,A,4258.0102,N,07253.5966,W,0.59,333.55,100313,,,A*7B
$GPGGA,164508.196,4258.0024,N,07253.5966,W,1,03,2.6,33.4,M,-33.4,M,,0000*56
$GPGSA,A,2,22,14,15,,,,,,,,,,2.8,2.6,1.0*3D
$GPRMC,164508.196,A,4258.0024,N,07253.5966,W,0.58,333.69,100313,,,A*7F
$GPGGA,164509.192,4258.0072,N,07253.5968,W,1,03,2.6,33.4,M,-33.4,M,,0000*5E
$GPGSA,A,2,22,14,15,,,,,,,,,,2.8,2.6,1.0*3D
$GPRMC,164509.192,A,4258.0072,N,07253.5968,W,0.70,330.67,100313,,,A*70
$GPGGA,164510.196,4258.0056,N,07253.5973,W,1,03,2.6,33.4,M,-33.4,M,,0000*5E
$GPGSA,A,2,22,14,15,,,,,,,,,,2.8,2.6,1.0*3D
$GPRMC,164510.196,A,4258.0056,N,07253.5973,W,0.89,328.16,100313,,,A*79
$GPGGA,164511.196,4258.0088,N,07253.5973,W,1,03,2.6,33.4,M,-33.4,M,,0000*5C
$GPGSA,A,2,22,14,15,,,,,,,,,,2.8,2.6,1.0*3D
$GPRMC,164511.196,A,4258.0088,N,07253.5973,W,0.75,344.30,100313,,,A*76
$GPGGA,164512.196,4258.0086,N,07253.5975,W,1,03,2.6,33.4,M,-33.4,M,,0000*57
$GPGSA,A,2,22,14,15,,,,,,,,,,2.8,2.6,1.0*3D
$GPGSV,3,1,12,22,43,302,40,15,35,061,38,14,27,252,38,26,65,267,*7E
$GPGSV,3,2,12,31,64,130,,21,41,194,30,09,32,191,40,18,24,299,34*7F
$GPGSV,3,3,12,19,08,309,,16,05,122,,28,01,028,,03,01,311,*73
$GPRMC,164512.196,A,4258.0086,N,07253.5975,W,1.06,340.77,100313,,,A*7F
$GPGGA,164513.196,4258.0073,N,07253.5974,W,1,03,2.6,33.4,M,-33.4,M,,0000*5D
$GPGSA,A,2,22,14,15,,,,,,,,,,2.8,2.6,1.0*3D
$GPRMC,164513.196,A,4258.0073,N,07253.5974,W,0.75,345.04,100313,,,A*71
$GPGGA,164514.192,4258.0074,N,07253.5976,W,1,03,2.6,33.4,M,-33.4,M,,0000*5B
$GPGSA,A,2,22,14,15,,,,,,,,,,2.8,2.6,1.0*3D
$GPRMC,164514.192,A,4258.0074,N,07253.5976,W,0.49,333.79,100313,,,A*73
$GPGGA,164515.196,4258.0081,N,07253.5976,W,1,03,2.6,33.4,M,-33.4,M,,0000*54
$GPGSA,A,2,22,14,15,,,,,,,,,,2.8,2.6,1.0*3D
$GPRMC,164515.196,A,4258.0081,N,07253.5976,W,0.26,6.75,100313,,,A*7C
$GPGGA,164516.196,4258.0088,N,07253.5979,W,1,03,2.6,33.4,M,-33.4,M,,0000*51
$GPGSA,A,2,22,14,15,,,,,,,,,,2.8,2.6,1.0*3D
$GPRMC,164516.196,A,4258.0088,N,07253.5979,W,0.66,316.22,100313,,,A*7D
$GPGGA,164517.196,4258.0090,N,07253.5982,W,1,03,2.6,33.4,M,-33.4,M,,0000*5D
$GPGSA,A,2,22,14,15,,,,,,,,,,2.8,2.6,1.0*3D
$GPGSV,3,1,12,22,43,302,41,15,35,061,39,14,28,252,41,26,65,267,*7F
$GPGSV,3,2,12,31,64,129,,21,41,194,30,09,32,191,39,18,24,299,34*79
$GPGSV,3,3,12,19,08,309,,16,05,122,,28,01,028,,03,01,311,*73
$GPRMC,164517.196,A,4258.0090,N,07253.5982,W,0.72,344.19,100313,,,A*7B
$GPGGA,164518.192,4258.0088,N,07253.5983,W,1,03,2.6,33.4,M,-33.4,M,,0000*5E
$GPGSA,A,2,22,14,15,,,,,,,,,,2.8,2.6,1.0*3D
$GPRMC,164518.192,A,4258.0088,N,07253.5983,W,0.51,332.34,100313,,,A*77
$GPGGA,164519.196,4258.0080,N,07253.5958,W,1,03,2.6,33.4,M,-33.4,M,,0000*55
$GPGSA,A,2,22,14,15,,,,,,,,,,2.8,2.6,1.0*3D
$GPRMC,164519.196,A,4258.0080,N,07253.5958,W,0.41,15.41,100313,,,A*49
$GPGGA,164520.196,4258.0092,N,07253.6002,W,1,03,2.6,33.4,M,-33.4,M,,0000*59
$GPGSA,A,2,22,14,15,,,,,,,,,,2.8,2.6,1.0*3D
$GPRMC,164520.196,A,4258.0092,N,07253.6002,W,0.56,326.20,100313,,,A*77
$GPGGA,164521.196,4258.0096,N,07253.6009,W,1,03,2.6,33.4,M,-33.4,M,,0000*57
$GPGSA,A,2,22,14,15,,,,,,,,,,2.8,2.6,1.0*3D
$GPRMC,164521.196,A,4258.0096,N,07253.6009,W,1.15,320.57,100313,,,A*79
$GPGGA,164522.192,4258.0098,N,07253.6011,W,1,03,2.6,33.4,M,-33.4,M,,0000*57
$GPGSA,A,2,22,14,15,,,,,,,,,,2.8,2.6,1.0*3D
$GPGSV,3,1,12,22,43,302,40,15,35,061,34,14,28,252,40,26,65,267,*72
$GPGSV,3,2,12,31,64,129,,21,41,194,31,09,32,191,37,18,24,299,32*70
$GPGSV,3,3,12,19,08,309,,16,05,122,,28,01,028,,03,01,311,*73
$GPRMC,164522.192,A,4258.0098,N,07253.6011,W,0.74,307.63,100313,,,A*7D
$GPGGA,164523.196,4258.0109,N,07253.6016,W,1,03,2.6,33.4,M,-33.4,M,,0000*5C
$GPGSA,A,2,22,14,15,,,,,,,,,,2.8,2.6,1.0*3D
$GPRMC,164523.196,A,4258.0109,N,07253.6016,W,0.19,8.91,100313,,,A*7C
$GPGGA,164524.196,4258.0173,N,07253.6073,W,1,03,2.6,33.4,M,-33.4,M,,0000*55
$GPGSA,A,2,22,14,15,,,,,,,,,,2.8,2.6,1.0*3D
$GPRMC,164524.196,A,4258.0173,N,07253.6073,W,1.30,302.65,100313,,,A*7D
$GPGGA,164525.192,4258.0134,N,07253.6046,W,1,03,2.6,33.4,M,-33.4,M,,0000*55
$GPGSA,A,2,22,14,15,,,,,,,,,,2.8,2.6,1.0*3D
$GPRMC,164525.192,A,4258.0134,N,07253.6046,W,1.06,299.08,100313,,,A*70
$GPGGA,164526.192,4258.0106,N,07253.6035,W,1,03,2.6,33.4,M,-33.4,M,,0000*53
$GPGSA,A,2,22,14,15,,,,,,,,,,2.8,2.6,1.0*3D
$GPRMC,164526.192,A,4258.0106,N,07253.6035,W,0.89,287.11,100313,,,A*77
$GPGGA,164527.196,4258.0099,N,07253.6037,W,1,03,2.6,33.4,M,-33.4,M,,0000*53
$GPGSA,A,2,22,14,15,,,,,,,,,,2.8,2.6,1.0*3D
$GPGSV,3,1,12,22,43,302,38,15,35,061,39,14,28,252,42,26,65,267,*72
$GPGSV,3,2,12,31,64,129,,21,41,194,34,09,32,191,35,18,24,299,32*77
$GPGSV,3,3,12,19,08,309,,16,05,122,,28,01,028,,03,01,311,*73
$GPRMC,164527.196,A,4258.0099,N,07253.6037,W,0.78,256.92,100313,,,A*7E
$GPGGA,164528.196,4258.0102,N,07253.6044,W,1,03,2.6,33.4,M,-33.4,M,,0000*5B
$GPGSA,A,2,22,14,15,,,,,,,,,,2.8,2.6,1.0*3D
$GPRMC,164528.196,A,4258.0102,N,07253.6044,W,0.93,267.28,100313,,,A*70
$GPGGA,164529.196,4258.0124,N,07253.6059,W,1,03,2.6,33.4,M,-33.4,M,,0000*52
$GPGSA,A,2,22,14,15,,,,,,,,,,2.8,2.6,1.0*3D
$GPRMC,164529.196,A,4258.0124,N,07253.6059,W,0.68,232.19,100313,,,A*7F
$GPGGA,164530.192,4258.0056,N,07253.6020,W,1,03,2.6,33.4,M,-33.4,M,,0000*54
$GPGSA,A,2,22,14,15,,,,,,,,,,2.8,2.6,1.0*3D
$GPRMC,164530.192,A,4258.0056,N,07253.6020,W,0.68,186.70,100313,,,A*7A
$GPGGA,164531.196,4258.0050,N,07253.6023,W,1,03,2.6,33.4,M,-33.4,M,,0000*54
$GPGSA,A,2,22,14,15,,,,,,,,,,2.8,2.6,1.0*3D
$GPRMC,164531.196,A,4258.0050,N,07253.6023,W,1.73,308.29,100313,,,A*79
$GPGGA,164532.196,4258.0048,N,07253.6032,W,1,03,2.6,33.4,M,-33.4,M,,0000*5E
$GPGSA,A,2,22,14,15,,,,,,,,,,2.8,2.6,1.0*3D
$GPGSV,3,1,12,22,43,302,35,15,35,061,38,14,28,252,47,26,65,267,*7B
$GPGSV,3,2,12,31,64,129,,21,41,194,38,09,32,191,37,18,24,299,32*79
$GPGSV,3,3,12,19,08,309,,16,05,122,,28,01,028,,03,01,311,*73
$GPRMC,164532.196,A,4258.0048,N,07253.6032,W,0.88,221.59,100313,,,A*7B
$GPGGA,164533.196,4258.0045,N,07253.6038,W,1,03,2.6,33.4,M,-33.4,M,,0000*58
$GPGSA,A,2,22,14,15,,,,,,,,,,2.8,2.6,1.0*3D
$GPRMC,164533.196,A,4258.0045,N,07253.6038,W,1.69,247.35,100313,,,A*79
$GPGGA,164534.192,4258.0052,N,07253.6071,W,1,03,2.6,33.4,M,-33.4,M,,0000*50
$GPGSA,A,2,22,14,15,,,,,,,,,,2.8,2.6,1.0*3D
$GPRMC,164534.192,A,4258.0052,N,07253.6071,W,2.44,241.40,100313,,,A*79
$GPGGA,164535.196,4258.0054,N,07253.6085,W,1,03,2.6,33.4,M,-33.4,M,,0000*58
$GPGSA,A,2,22,14,15,,,,,,,,,,2.8,2.6,1.0*3D
$GPRMC,164535.196,A,4258.0054,N,07253.6085,W,2.55,269.72,100313,,,A*7A
$GPGGA,164536.196,4258.0054,N,07253.6087,W,1,03,2.6,33.4,M,-33.4,M,,0000*59
$GPGSA,A,2,22,14,15,,,,,,,,,,2.8,2.6,1.0*3D
$GPRMC,164536.196,A,4258.0054,N,07253.6087,W,1.59,258.77,100313,,,A*73
$GPGGA,164537.192,4258.0069,N,07253.6124,W,1,03,2.6,33.4,M,-33.4,M,,0000*5A
$GPGSA,A,2,22,14,15,,,,,,,,,,2.8,2.6,1.0*3D
$GPGSV,3,1,12,22,43,302,36,15,35,061,32,14,28,252,41,26,65,267,*74
$GPGSV,3,2,12,31,64,129,,21,41,194,38,09,32,191,29,18,24,299,32*76
$GPGSV,3,3,12,19,08,309,,16,05,122,,28,01,028,,03,01,311,*73
$GPRMC,164537.192,A,4258.0069,N,07253.6124,W,0.97,234.00,100313,,,A*79
$GPGGA,164538.192,4258.0074,N,07253.6133,W,1,03,2.6,33.4,M,-33.4,M,,0000*5F
$GPGSA,A,2,22,14,15,,,,,,,,,,2.8,2.6,1.0*3D
$GPRMC,164538.192,A,4258.0074,N,07253.6133,W,0.88,233.17,100313,,,A*73
$GPGGA,164539.196,4258.0189,N,07253.6179,W,1,03,2.6,33.4,M,-33.4,M,,0000*57
$GPGSA,A,2,22,14,15,,,,,,,,,,2.8,2.6,1.0*3D
$GPRMC,164539.196,A,4258.0189,N,07253.6179,W,0.79,336.97,100313,,,A*79
$GPGGA,164540.196,4258.0215,N,07253.6204,W,1,03,2.6,33.4,M,-33.4,M,,0000*56
$GPGSA,A,2,22,14,15,,,,,,,,,,2.8,2.6,1.0*3D
$GPRMC,164540.196,A,4258.0215,N,07253.6204,W,0.02,92.43,100313,,,A*40
$GPGGA,164541.196,4258.0154,N,07253.6182,W,1,03,2.6,33.4,M,-33.4,M,,0000*5C
$GPGSA,A,2,22,14,15,,,,,,,,,,2.8,2.6,1.0*3D
$GPRMC,164541.196,A,4258.0154,N,07253.6182,W,0.23,289.22,100313,,,A*76
$GPGGA,164542.192,4258.0118,N,07253.6174,W,1,03,2.6,33.4,M,-33.4,M,,0000*5A
$GPGSA,A,2,22,14,15,,,,,,,,,,2.8,2.6,1.0*3D
$GPGSV,3,1,12,22,43,302,37,15,35,061,31,14,28,252,35,26,65,267,*75
$GPGSV,3,2,12,31,64,129,,21,41,194,35,09,32,191,28,18,24,299,32*7A
$GPGSV,3,3,12,19,08,309,,16,05,122,,28,01,028,,03,01,311,*73
$GPRMC,164542.192,A,4258.0118,N,07253.6174,W,3.93,183.51,100313,,,A*75
$GPGGA,164543.196,4258.0087,N,07253.6152,W,1,03,2.6,33.4,M,-33.4,M,,0000*5C
$GPGSA,A,2,22,14,15,,,,,,,,,,2.8,2.6,1.0*3D
$GPRMC,164543.196,A,4258.0087,N,07253.6152,W,4.41,222.87,100313,,,A*78
$GPGGA,164544.196,4258.0098,N,07253.6172,W,1,03,2.6,33.4,M,-33.4,M,,0000*57
$GPGSA,A,2,22,14,15,,,,,,,,,,2.8,2.6,1.0*3D
$GPRMC,164544.196,A,4258.0098,N,07253.6172,W,1.09,271.02,100313,,,A*71
$GPGGA,164545.196,4258.0092,N,07253.6196,W,1,03,2.6,33.4,M,-33.4,M,,0000*56
$GPGSA,A,2,22,14,15,,,,,,,,,,2.8,2.6,1.0*3D
$GPRMC,164545.196,A,4258.0092,N,07253.6196,W,3.99,238.06,100313,,,A*72
$GPGGA,164546.192,4258.0087,N,07253.6225,W,1,03,2.6,33.4,M,-33.4,M,,0000*5E
$GPGSA,A,2,22,14,15,,,,,,,,,,2.8,2.6,1.0*3D
$GPRMC,164546.192,A,4258.0087,N,07253.6225,W,6.35,254.88,100313,,,A*75
$GPGGA,164547.196,4258.0082,N,07253.6232,W,1,03,2.6,33.4,M,-33.4,M,,0000*58
$GPGSA,A,2,22,14,15,,,,,,,,,,2.8,2.6,1.0*3D
$GPGSV,3,1,12,22,43,302,43,15,35,061,32,14,28,252,40,26,65,267,*77
$GPGSV,3,2,12,31,64,129,,21,41,194,41,09,32,191,29,18,24,299,35*7F
$GPGSV,3,3,12,19,08,309,,16,05,122,,28,01,028,,03,01,311,*73
$GPRMC,164547.196,A,4258.0082,N,07253.6232,W,2.26,261.20,100313,,,A*71
$GPGGA,164548.196,4258.0078,N,07253.6243,W,1,03,2.6,33.4,M,-33.4,M,,0000*54
$GPGSA,A,2,22,14,15,,,,,,,,,,2.8,2.6,1.0*3D
$GPRMC,164548.196,A,4258.0078,N,07253.6243,W,3.08,255.76,100313,,,A*74
$GPGGA,164549.196,4258.0068,N,07253.6255,W,1,03,2.6,33.4,M,-33.4,M,,0000*53
$GPGSA,A,2,22,14,15,,,,,,,,,,2.8,2.6,1.0*3D
$GPRMC,164549.196,A,4258.0068,N,07253.6255,W,6.37,244.93,100313,,,A*71
$GPGGA,164550.192,4258.0114,N,07253.6261,W,1,03,2.6,33.4,M,-33.4,M,,0000*52
$GPGSA,A,2,22,14,15,,,,,,,,,,2.8,2.6,1.0*3D
$GPRMC,164550.192,A,4258.0114,N,07253.6261,W,3.89,287.79,100313,,,A*7B
$GPGGA,164551.196,4258.0054,N,07253.6235,W,1,03,2.6,33.4,M,-33.4,M,,0000*53
$GPGSA,A,2,22,14,15,,,,,,,,,,2.8,2.6,1.0*3D
$GPRMC,164551.196,A,4258.0054,N,07253.6235,W,1.88,312.95,100313,,,A*76
$GPGGA,164552.196,4257.9359,N,07253.3613,W,1,03,3.2,33.4,M,-33.4,M,,0000*58
$GPGSA,A,2,22,14,21,,,,,,,,,,3.3,3.2,1.0*35
$GPGSV,3,1,12,22,43,302,34,15,35,061,,14,28,252,33,26,65,267,*72
$GPGSV,3,2,12,31,64,129,,21,41,194,36,09,32,191,29,18,24,299,34*7E
$GPGSV,3,3,12,19,08,309,,16,05,122,,28,01,028,,03,01,311,*73
$GPRMC,164552.196,A,4257.9359,N,07253.3613,W,4.41,242.57,100313,,,A*72
$GPGGA,164553.196,4257.8943,N,07253.5956,W,1,04,1.6,602.0,M,-33.4,M,,0000*60
$GPGSA,A,3,22,14,21,15,,,,,,,,,5.2,1.6,5.0*35
$GPRMC,164553.196,A,4257.8943,N,07253.5956,W,3.48,247.13,100313,,,A*70
$GPGGA,164554.192,4257.8960,N,07253.6001,W,1,04,1.6,598.1,M,-33.4,M,,0000*6B
$GPGSA,A,3,22,14,21,15,,,,,,,,,5.2,1.6,5.0*35
$GPRMC,164554.192,A,4257.8960,N,07253.6001,W,0.70,245.98,100313,,,A*73
$GPGGA,164555.000,4257.8954,N,07253.6006,W,1,04,1.6,593.0,M,-33.4,M,,0000*6A
$GPGSA,A,3,22,14,21,15,,,,,,,,,5.2,1.6,5.0*35
$GPRMC,164555.000,A,4257.8954,N,07253.6006,W,1.88,224.79,100313,,,A*76
$GPGGA,164556.000,4257.8949,N,07253.6008,W,1,04,1.6,588.1,M,-33.4,M,,0000*60
$GPGSA,A,3,22,14,21,15,,,,,,,,,5.2,1.6,5.0*35
$GPRMC,164556.000,A,4257.8949,N,07253.6008,W,3.23,239.56,100313,,,A*75
$GPGGA,164557.000,4257.8945,N,07253.6013,W,1,04,1.6,588.4,M,-33.4,M,,0000*62
$GPGSA,A,3,22,14,21,15,,,,,,,,,5.2,1.6,5.0*35
$GPGSV,3,1,12,21,46,202,40,22,43,302,35,15,34,062,29,14,28,252,36*7E
$GPGSV,3,2,12,26,66,268,,31,64,129,,09,32,191,29,18,24,299,32*7F
$GPGSV,3,3,12,19,08,309,,16,05,121,,28,01,027,,03,01,311,*7F
$GPRMC,164557.000,A,4257.8945,N,07253.6013,W,1.78,245.27,100313,,,A*73
$GPGGA,164558.000,4257.8942,N,07253.6021,W,1,04,1.6,591.0,M,-33.4,M,,0000*67
$GPGSA,A,3,22,14,21,15,,,,,,,,,5.2,1.6,5.0*35
$GPRMC,164558.000,A,4257.8942,N,07253.6021,W,3.32,243.70,100313,,,A*72
$GPGGA,164559.000,4257.8935,N,07253.6040,W,1,04,1.6,594.3,M,-33.4,M,,0000*67
$GPGSA,A,3,22,14,21,15,,,,,,,,,5.2,1.6,5.0*35
$GPRMC,164559.000,A,4257.8935,N,07253.6040,W,4.24,241.05,100313,,,A*74
$GPGGA,164600.000,4257.8929,N,07253.6052,W,1,04,1.6,595.1,M,-33.4,M,,0000*65
$GPGSA,A,3,22,14,21,15,,,,,,,,,5.2,1.6,5.0*35
$GPRMC,164600.000,A,4257.8929,N,07253.6052,W,3.18,246.17,100313,,,A*79
$GPGGA,164601.000,4257.8925,N,07253.6059,W,1,04,1.6,594.9,M,-33.4,M,,0000*6A
$GPGSA,A,3,22,14,21,15,,,,,,,,,5.2,1.6,5.0*35
$GPRMC,164601.000,A,4257.8925,N,07253.6059,W,3.28,245.45,100313,,,A*78
$GPGGA,164602.000,4257.8919,N,07253.6074,W,1,04,1.6,594.9,M,-33.4,M,,0000*69
$GPGSA,A,3,22,14,21,15,,,,,,,,,5.2,1.6,5.0*35
$GPGSV,3,1,12,21,46,202,37,22,43,302,41,15,34,062,32,14,28,252,38*79
$GPGSV,3,2,12,26,66,268,,31,64,129,,09,32,191,29,18,24,299,32*7F
$GPGSV,3,3,12,19,08,309,,16,05,121,,28,01,027,,03,01,311,*7F
$GPRMC,164602.000,A,4257.8919,N,07253.6074,W,3.93,242.52,100313,,,A*7A
$GPGGA,164603.000,4257.8914,N,07253.6089,W,1,04,1.6,595.4,M,-33.4,M,,0000*6B
$GPGSA,A,3,22,14,21,15,,,,,,,,,5.2,1.6,5.0*35
$GPRMC,164603.000,A,4257.8914,N,07253.6089,W,3.73,245.88,100313,,,A*7A
$GPGGA,164604.000,4257.8909,N,07253.6099,W,1,04,1.6,595.4,M,-33.4,M,,0000*61
$GPGSA,A,3,22,14,21,15,,,,,,,,,5.2,1.6,5.0*35
$GPRMC,164604.000,A,4257.8909,N,07253.6099,W,3.39,248.21,100313,,,A*70
$GPGGA,164605.000,4257.8905,N,07253.6110,W,1,04,1.6,595.3,M,-33.4,M,,0000*6B
$GPGSA,A,3,22,14,21,15,,,,,,,,,5.2,1.6,5.0*35
$GPRMC,164605.000,A,4257.8905,N,07253.6110,W,4.40,244.85,100313,,,A*76
$GPGGA,164606.000,4257.8899,N,07253.6123,W,1,03,3.2,594.4,M,-33.4,M,,0000*6B
$GPGSA,A,2,22,14,21,,,,,,,,,,3.4,3.2,1.0*32
$GPRMC,164606.000,A,4257.8899,N,07253.6123,W,3.89,245.03,100313,,,A*7C
$GPGGA,164607.000,4257.8894,N,07253.6136,W,1,04,1.6,595.1,M,-33.4,M,,0000*66
$GPGSA,A,3,22,14,21,15,,,,,,,,,5.2,1.6,5.0*35
$GPGSV,3,1,12,21,46,202,38,22,43,302,41,15,34,062,25,14,28,252,39*71
$GPGSV,3,2,12,26,66,268,,31,64,129,,09,32,191,38,18,24,299,33*7E
$GPGSV,3,3,12,19,08,309,29,16,05,121,,28,01,027,,03,01,311,*74
$GPRMC,164607.000,A,4257.8894,N,07253.6136,W,3.70,248.82,100313,,,A*76
$GPGGA,164608.000,4257.8887,N,07253.6162,W,1,04,1.6,598.3,M,-33.4,M,,0000*65
$GPGSA,A,3,22,14,21,15,,,,,,,,,5.2,1.6,5.0*35
$GPRMC,164608.000,A,4257.8887,N,07253.6162,W,4.52,246.06,100313,,,A*7F
$GPGGA,164609.000,4257.8882,N,07253.6176,W,1,04,1.6,598.9,M,-33.4,M,,0000*6E
$GPGSA,A,3,22,14,21,15,,,,,,,,,5.2,1.6,5.0*35
$GPRMC,164609.000,A,4257.8882,N,07253.6176,W,4.06,244.67,100313,,,A*7A
$GPGGA,164610.000,4257.8876,N,07253.6193,W,1,04,1.6,600.3,M,-33.4,M,,0000*6E
$GPGSA,A,3,22,14,21,15,,,,,,,,,5.2,1.6,5.0*35
$GPRMC,164610.000,A,4257.8876,N,07253.6193,W,3.44,245.12,100313,,,A*70
$GPGGA,164611.000,4257.8870,N,07253.6212,W,1,04,1.6,602.0,M,-33.4,M,,0000*62
$GPGSA,A,3,22,14,21,15,,,,,,,,,5.2,1.6,5.0*35
$GPRMC,164611.000,A,4257.8870,N,07253.6212,W,4.44,245.91,100313,,,A*71
$GPGGA,164612.000,4257.8865,N,07253.6227,W,1,04,1.6,602.6,M,-33.4,M,,0000*65
$GPGSA,A,3,22,14,21,15,,,,,,,,,5.2,1.6,5.0*35
$GPGSV,3,1,12,21,46,202,38,22,43,302,40,15,34,062,32,14,28,252,39*76
$GPGSV,3,2,12,26,66,268,,31,64,129,,09,32,191,32,18,24,299,33*74
$GPGSV,3,3,12,19,08,309,,16,05,121,,28,01,027,,03,01,311,*7F
$GPRMC,164612.000,A,4257.8865,N,07253.6227,W,4.29,245.00,100313,,,A*73
$GPGGA,164613.000,4257.8860,N,07253.6239,W,1,04,1.6,603.0,M,-33.4,M,,0000*69
$GPGSA,A,3,22,14,21,15,,,,,,,,,5.2,1.6,5.0*35
$GPRMC,164613.000,A,4257.8860,N,07253.6239,W,3.55,246.70,100313,,,A*70
$GPGGA,164614.000,4257.8855,N,07253.6254,W,1,04,1.6,603.7,M,-33.4,M,,0000*64
$GPGSA,A,3,22,14,21,15,,,,,,,,,5.3,1.6,5.0*34
$GPRMC,164614.000,A,4257.8855,N,07253.6254,W,4.20,245.68,100313,,,A*75
$GPGGA,164615.000,4257.8850,N,07253.6268,W,1,04,1.6,604.1,M,-33.4,M,,0000*6E
$GPGSA,A,3,22,14,21,15,,,,,,,,,5.3,1.6,5.0*34
$GPRMC,164615.000,A,4257.8850,N,07253.6268,W,4.24,243.83,100313,,,A*79
$GPGGA,164616.000,4257.8845,N,07253.6279,W,1,04,1.6,604.0,M,-33.4,M,,0000*68
$GPGSA,A,3,22,14,21,15,,,,,,,,,5.3,1.6,5.0*34
$GPRMC,164616.000,A,4257.8845,N,07253.6279,W,3.71,244.52,100313,,,A*72
$GPGGA,164617.000,4257.8841,N,07253.6291,W,1,04,1.6,604.4,M,-33.4,M,,0000*6F
$GPGSA,A,3,22,14,21,15,,,,,,,,,5.3,1.6,5.0*34
$GPGSV,3,1,12,26,66,268,,31,64,128,,21,46,202,38,22,43,302,39*7D
$GPGSV,3,2,12,15,34,062,32,09,32,191,38,14,28,252,39,18,24,299,28*70
$GPGSV,3,3,12,19,08,309,,16,05,121,,28,01,027,,03,01,311,*7F
$GPRMC,164617.000,A,4257.8841,N,07253.6291,W,3.78,246.55,100313,,,A*7D
$GPGGA,164618.000,4257.8836,N,07253.6304,W,1,04,1.6,604.9,M,-33.4,M,,0000*60
$GPGSA,A,3,22,14,21,15,,,,,,,,,5.3,1.6,5.0*34
$GPRMC,164618.000,A,4257.8836,N,07253.6304,W,4.16,244.25,100313,,,A*75
$GPGGA,164619.000,4257.8832,N,07253.6319,W,1,04,1.6,606.6,M,-33.4,M,,0000*64
$GPGSA,A,3,22,14,21,15,,,,,,,,,5.3,1.6,5.0*34
$GPRMC,164619.000,A,4257.8832,N,07253.6319,W,3.84,247.14,100313,,,A*71
$GPGGA,164620.000,4257.8827,N,07253.6338,W,1,04,1.6,608.1,M,-33.4,M,,0000*60
$GPGSA,A,3,22,14,21,15,,,,,,,,,5.3,1.6,5.0*34
$GPRMC,164620.000,A,4257.8827,N,07253.6338,W,4.07,248.90,100313,,,A*73
$GPGGA,164621.000,4257.8823,N,07253.6354,W,1,04,1.6,609.1,M,-33.4,M,,0000*6E
$GPGSA,A,3,22,14,21,15,,,,,,,,,5.3,1.6,5.0*34
$GPRMC,164621.000,A,4257.8823,N,07253.6354,W,3.91,247.67,100313,,,A*73
$GPGGA,164622.000,4257.8819,N,07253.6369,W,1,04,1.6,609.9,M,-33.4,M,,0000*62
$GPGSA,A,3,22,14,21,15,,,,,,,,,5.3,1.6,5.0*34
$GPGSV,3,1,12,26,66,268,,31,64,128,,21,46,202,35,22,43,302,32*7B
$GPGSV,3,2,12,15,34,062,31,09,32,191,34,14,28,252,30,18,24,299,30*7F
$GPGSV,3,3,12,19,08,309,,16,05,121,,28,01,027,,03,01,311,*7F
$GPRMC,164622.000,A,4257.8819,N,07253.6369,W,3.99,243.82,100313,,,A*70
$GPGGA,164623.000,4257.8814,N,07253.6384,W,1,04,1.6,610.4,M,-33.4,M,,0000*68
$GPGSA,A,3,22,14,21,15,,,,,,,,,5.3,1.6,5.0*34
$GPRMC,164623.000,A,4257.8814,N,07253.6384,W,4.00,247.29,100313,,,A*7D
$GPGGA,164624.000,4257.8810,N,07253.6399,W,1,04,1.6,611.0,M,-33.4,M,,0000*62
$GPGSA,A,3,22,14,21,15,,,,,,,,,5.3,1.6,5.0*34
$GPRMC,164624.000,A,4257.8810,N,07253.6399,W,3.86,247.57,100313,,,A*72
$GPGGA,164625.000,4257.8805,N,07253.6416,W,1,04,1.6,612.0,M,-33.4,M,,0000*64
$GPGSA,A,3,22,14,21,15,,,,,,,,,5.3,1.6,5.0*34
$GPRMC,164625.000,A,4257.8805,N,07253.6416,W,4.12,246.69,100313,,,A*71
$GPGGA,164626.000,4257.8800,N,07253.6428,W,1,04,1.6,612.0,M,-33.4,M,,0000*6F
$GPGSA,A,3,22,14,21,15,,,,,,,,,5.3,1.6,5.0*34
$GPRMC,164626.000,A,4257.8800,N,07253.6428,W,3.21,242.03,100313,,,A*75
$GPGGA,164627.000,4257.8795,N,07253.6441,W,1,04,1.6,611.9,M,-33.4,M,,0000*68
$GPGSA,A,3,22,14,21,15,,,,,,,,,5.3,1.6,5.0*34
$GPGSV,3,1,12,26,66,268,,31,64,128,,21,46,202,37,22,43,302,38*73
$GPGSV,3,2,12,15,34,062,30,09,32,191,34,14,28,252,40,18,24,299,31*78
$GPGSV,3,3,12,19,08,309,,16,05,121,,28,01,027,,03,01,311,*7F
$GPRMC,164627.000,A,4257.8795,N,07253.6441,W,3.81,245.29,100313,,,A*7D
$GPGGA,164628.000,4257.8788,N,07253.6455,W,1,05,1.5,612.7,M,-33.4,M,,0000*61
$GPGSA,A,3,22,09,14,21,15,,,,,,,,4.2,1.5,4.0*3F
$GPRMC,164628.000,A,4257.8788,N,07253.6455,W,4.08,244.59,100313,,,A*7B
$GPGGA,164629.000,4257.8782,N,07253.6471,W,1,05,1.5,613.4,M,-33.4,M,,0000*6E
$GPGSA,A,3,22,09,14,21,15,,,,,,,,4.2,1.5,4.0*3F
$GPRMC,164629.000,A,4257.8782,N,07253.6471,W,4.22,244.01,100313,,,A*73
$GPGGA,164630.000,4257.8776,N,07253.6486,W,1,05,1.5,614.1,M,-33.4,M,,0000*67
$GPGSA,A,3,22,09,14,21,15,,,,,,,,4.2,1.5,4.0*3F
$GPRMC,164630.000,A,4257.8776,N,07253.6486,W,3.79,246.89,100313,,,A*73
$GPGGA,164631.000,4257.8771,N,07253.6500,W,1,05,1.5,614.9,M,-33.4,M,,0000*66
$GPGSA,A,3,22,09,14,21,15,,,,,,,,4.2,1.5,4.0*3F
$GPRMC,164631.000,A,4257.8771,N,07253.6500,W,3.89,244.67,100313,,,A*77
$GPGGA,164632.000,4257.8766,N,07253.6515,W,1,05,1.5,615.4,M,-33.4,M,,0000*6B
$GPGSA,A,3,22,09,14,21,15,,,,,,,,4.2,1.5,4.0*3F
$GPGSV,3,1,12,26,66,268,,31,64,128,,21,46,202,38,22,43,302,38*7C
$GPGSV,3,2,12,15,34,062,30,14,28,253,40,18,24,299,29,09,22,042,36*7C
$GPGSV,3,3,12,19,08,309,,16,05,121,,28,01,027,,03,01,311,*7F
$GPRMC,164632.000,A,4257.8766,N,07253.6515,W,4.25,244.90,100313,,,A*7F
$GPGGA,164633.000,4257.8760,N,07253.6530,W,1,05,1.5,615.9,M,-33.4,M,,0000*66
$GPGSA,A,3,22,09,14,21,15,,,,,,,,4.2,1.5,4.0*3F
$GPRMC,164633.000,A,4257.8760,N,07253.6530,W,3.92,245.58,100313,,,A*71
$GPGGA,164634.000,4257.8755,N,07253.6544,W,1,05,1.5,616.3,M,-33.4,M,,0000*6D
$GPGSA,A,3,22,09,14,21,15,,,,,,,,4.2,1.5,4.0*3F
$GPRMC,164634.000,A,4257.8755,N,07253.6544,W,3.80,246.31,100313,,,A*7C
$GPGGA,164635.000,4257.8750,N,07253.6558,W,1,05,1.5,616.6,M,-33.4,M,,0000*61
$GPGSA,A,3,22,09,14,21,15,,,,,,,,4.2,1.5,4.0*3F
$GPRMC,164635.000,A,4257.8750,N,07253.6558,W,4.09,244.08,100313,,,A*7B
$GPGGA,164636.000,4257.8745,N,07253.6573,W,1,05,1.5,617.0,M,-33.4,M,,0000*68
$GPGSA,A,3,22,09,14,21,15,,,,,,,,4.2,1.5,4.0*3F
$GPRMC,164636.000,A,4257.8745,N,07253.6573,W,4.14,246.11,100313,,,A*73
$GPGGA,164637.000,4257.8740,N,07253.6588,W,1,05,1.5,617.3,M,-33.4,M,,0000*6B
$GPGSA,A,3,22,09,14,21,15,,,,,,,,4.2,1.5,4.0*3F
$GPGSV,3,1,12,26,66,268,,31,64,128,,21,46,202,39,22,43,302,39*7C
$GPGSV,3,2,12,15,34,062,31,14,28,253,39,18,24,299,29,09,22,042,36*73
$GPGSV,3,3,12,19,08,309,,16,05,121,,28,01,027,,03,01,311,*7F
$GPRMC,164637.000,A,4257.8740,N,07253.6588,W,3.86,247.39,100313,,,A*74
$GPGGA,164638.000,4257.8735,N,07253.6602,W,1,05,1.5,617.6,M,-33.4,M,,0000*62
$GPGSA,A,3,22,09,14,21,15,,,,,,,,4.2,1.5,4.0*3F
$GPRMC,164638.000,A,4257.8735,N,07253.6602,W,3.94,243.45,100313,,,A*74
$GPGGA,164639.000,4257.8730,N,07253.6616,W,1,05,1.5,617.9,M,-33.4,M,,0000*6C
$GPGSA,A,3,22,09,14,21,15,,,,,,,,4.2,1.5,4.0*3F
$GPRMC,164639.000,A,4257.8730,N,07253.6616,W,4.15,243.51,100313,,,A*7E
$GPGGA,164640.000,4257.8725,N,07253.6630,W,1,05,1.5,618.1,M,-33.4,M,,0000*65
$GPGSA,A,3,22,09,14,21,15,,,,,,,,4.2,1.5,4.0*3F
$GPRMC,164640.000,A,4257.8725,N,07253.6630,W,3.99,248.22,100313,,,A*7C
$GPGGA,164641.000,4257.8721,N,07253.6644,W,1,05,1.5,618.4,M,-33.4,M,,0000*66
$GPGSA,A,3,22,09,14,21,15,,,,,,,,4.2,1.5,4.0*3F
$GPRMC,164641.000,A,4257.8721,N,07253.6644,W,3.91,246.28,100313,,,A*76
$GPGGA,164642.000,4257.8716,N,07253.6658,W,1,05,1.5,618.7,M,-33.4,M,,0000*6F
$GPGSA,A,3,22,09,14,21,15,,,,,,,,4.2,1.5,4.0*3F
$GPGSV,3,1,12,26,66,268,,31,64,128,,21,46,202,39,22,43,302,39*7C
$GPGSV,3,2,12,15,34,062,32,14,28,253,39,18,24,299,29,09,22,042,36*70
$GPGSV,3,3,12,19,08,309,,16,05,121,,28,01,027,,03,01,311,*7F
$GPRMC,164642.000,A,4257.8716,N,07253.6658,W,3.98,241.43,100313,,,A*7F
$GPGGA,164643.000,4257.8711,N,07253.6672,W,1,05,1.5,619.1,M,-33.4,M,,0000*66
$GPGSA,A,3,22,09,14,21,15,,,,,,,,4.2,1.5,4.0*3F
$GPRMC,164643.000,A,4257.8711,N,07253.6672,W,4.07,244.46,100313,,,A*70
$GPGGA,164644.000,4257.8706,N,07253.6687,W,1,05,1.5,619.4,M,-33.4,M,,0000*68
$GPGSA,A,3,22,09,14,21,15,,,,,,,,4.2,1.5,4.0*3F
$GPRMC,164644.000,A,4257.8706,N,07253.6687,W,3.92,249.10,100313,,,A*7E
$GPGGA,164645.000,4257.8702,N,07253.6701,W,1,05,1.5,619.7,M,-33.4,M,,0000*61
$GPGSA,A,3,22,09,14,21,15,,,,,,,,4.2,1.5,4.0*3F
$GPRMC,164645.000,A,4257.8702,N,07253.6701,W,3.93,244.07,100313,,,A*7E
$GPGGA,164646.000,4257.8696,N,07253.6714,W,1,05,1.5,620.1,M,-33.4,M,,0000*66
$GPGSA,A,3,22,09,14,21,15,,,,,,,,4.2,1.5,4.0*3F
$GPRMC,164646.000,A,4257.8696,N,07253.6714,W,4.04,242.10,100313,,,A*7C
$GPGGA,164647.000,4257.8692,N,07253.6729,W,1,05,1.5,620.6,M,-33.4,M,,0000*6A
$GPGSA,A,3,22,09,14,21,15,,,,,,,,4.2,1.5,4.0*3F
$GPGSV,3,1,12,26,66,268,,31,64,128,,21,46,202,39,22,44,302,39*7B
$GPGSV,3,2,12,15,34,062,32,14,28,253,39,18,24,299,30,09,21,042,37*7A
$GPGSV,3,3,12,19,08,309,,16,05,121,,28,01,027,,03,01,311,*7F
$GPRMC,164647.000,A,4257.8692,N,07253.6729,W,4.02,246.65,100313,,,A*77
$GPGGA,164648.000,4257.8687,N,07253.6743,W,1,05,1.5,621.0,M,-33.4,M,,0000*6A
$GPGSA,A,3,22,09,14,21,15,,,,,,,,4.2,1.5,4.0*3F
$GPRMC,164648.000,A,4257.8687,N,07253.6743,W,3.84,247.22,100313,,,A*7B
$GPGGA,164649.000,4257.8683,N,07253.6757,W,1,05,1.5,621.3,M,-33.4,M,,0000*69
$GPGSA,A,3,22,09,14,21,15,,,,,,,,4.2,1.5,4.0*3F
$GPRMC,164649.000,A,4257.8683,N,07253.6757,W,4.01,243.19,100313,,,A*7D
$GPGGA,164650.000,4257.8678,N,07253.6771,W,1,05,1.5,621.7,M,-33.4,M,,0000*65
$GPGSA,A,3,22,09,14,21,15,,,,,,,,4.2,1.5,4.0*3F
$GPRMC,164650.000,A,4257.8678,N,07253.6771,W,4.01,244.40,100313,,,A*7E
$GPGGA,164651.000,4257.8673,N,07253.6785,W,1,05,1.5,622.1,M,-33.4,M,,0000*61
$GPGSA,A,3,22,09,14,21,15,,,,,,,,4.2,1.5,4.0*3F
$GPRMC,164651.000,A,4257.8673,N,07253.6785,W,3.89,246.12,100313,,,A*7D
$GPGGA,164652.000,4257.8669,N,07253.6797,W,1,06,1.5,623.7,M,-33.4,M,,0000*6E
$GPGSA,A,3,22,09,14,21,15,24,,,,,,,3.2,1.5,2.8*30
$GPGSV,3,1,12,26,66,268,,31,64,128,,21,46,202,40,22,44,302,39*75
$GPGSV,3,2,12,15,34,062,32,14,28,253,40,18,24,299,30,09,21,042,37*74
$GPGSV,3,3,12,19,08,309,,16,05,121,,28,01,027,,03,01,311,*7F
$GPRMC,164652.000,A,4257.8669,N,07253.6797,W,3.90,244.44,100313,,,A*7F
$GPGGA,164653.000,4257.8664,N,07253.6809,W,1,06,1.5,625.1,M,-33.4,M,,0000*6A
$GPGSA,A,3,22,09,14,21,15,24,,,,,,,3.2,1.5,2.8*30
$GPRMC,164653.000,A,4257.8664,N,07253.6809,W,3.91,244.52,100313,,,A*7D
$GPGGA,164654.000,4257.8660,N,07253.6822,W,1,06,1.5,626.1,M,-33.4,M,,0000*63
$GPGSA,A,3,22,09,14,21,15,24,,,,,,,3.2,1.5,2.8*30
$GPRMC,164654.000,A,4257.8660,N,07253.6822,W,3.99,246.26,100313,,,A*7E
$GPGGA,164655.000,4257.8655,N,07253.6836,W,1,06,1.5,627.1,M,-33.4,M,,0000*60
$GPGSA,A,3,22,09,14,21,15,24,,,,,,,3.2,1.5,2.8*30
$GPRMC,164655.000,A,4257.8655,N,07253.6836,W,3.83,244.56,100313,,,A*72
$GPGGA,164656.000,4257.8651,N,07253.6848,W,1,06,1.5,628.0,M,-33.4,M,,0000*60
$GPGSA,A,3,22,09,14,21,15,24,,,,,,,3.2,1.5,2.8*30
$GPRMC,164656.000,A,4257.8651,N,07253.6848,W,3.86,243.81,100313,,,A*74
$GPGGA,164657.000,4257.8646,N,07253.6862,W,1,06,1.5,629.0,M,-33.4,M,,0000*6E
$GPGSA,A,3,22,09,14,21,15,24,,,,,,,3.2,1.5,2.8*30
$GPGSV,3,1,12,26,66,269,,31,64,128,,24,62,095,36,21,46,202,40*74
$GPGSV,3,2,12,22,44,302,39,15,34,062,31,14,28,253,40,18,24,299,30*74
$GPGSV,3,3,12,09,21,042,36,19,08,309,,16,05,121,,28,01,027,*77
$GPRMC,164657.000,A,4257.8646,N,07253.6862,W,4.14,247.57,100313,,,A*78
$GPGGA,164658.000,4257.8642,N,07253.6876,W,1,07,1.3,630.3,M,-33.4,M,,0000*6C
$GPGSA,A,3,22,09,14,21,15,18,24,,,,,,2.4,1.3,2.0*30
$GPRMC,164658.000,A,4257.8642,N,07253.6876,W,3.94,246.21,100313,,,A*79
$GPGGA,164659.000,4257.8637,N,07253.6890,W,1,07,1.3,631.3,M,-33.4,M,,0000*66
$GPGSA,A,3,22,09,14,21,15,18,24,,,,,,2.4,1.3,2.0*30
$GPRMC,164659.000,A,4257.8637,N,07253.6890,W,3.75,242.58,100313,,,A*77
$GPGGA,164700.000,4257.8633,N,07253.6903,W,1,07,1.3,631.9,M,-33.4,M,,0000*6E
$GPGSA,A,3,22,09,14,21,15,18,24,,,,,,2.4,1.3,2.0*30
$GPRMC,164700.000,A,4257.8633,N,07253.6903,W,3.98,245.87,100313,,,A*73
$GPGGA,164701.000,4257.8628,N,07253.6916,W,1,07,1.3,632.7,M,-33.4,M,,0000*6C
$GPGSA,A,3,22,09,14,21,15,18,24,,,,,,2.4,1.3,2.0*30
$GPRMC,164701.000,A,4257.8628,N,07253.6916,W,3.96,247.94,100313,,,A*72
$GPGGA,164702.000,4257.8625,N,07253.6931,W,1,07,1.3,634.4,M,-33.4,M,,0000*62
$GPGSA,A,3,22,09,14,21,15,18,24,,,,,,2.4,1.3,2.0*30
$GPGSV,3,1,12,18,78,326,31,26,66,269,,31,64,128,,24,62,095,36*72
$GPGSV,3,2,12,21,46,202,40,22,44,302,35,15,34,062,31,14,28,253,38*7C
$GPGSV,3,3,12,09,21,042,35,19,08,309,,16,05,121,,28,01,027,*74
$GPRMC,164702.000,A,4257.8625,N,07253.6931,W,3.75,242.87,100313,,,A*73
$GPGGA,164703.000,4257.8620,N,07253.6944,W,1,07,1.3,635.1,M,-33.4,M,,0000*60
$GPGSA,A,3,22,09,14,21,15,18,24,,,,,,2.4,1.3,2.0*30
$GPRMC,164703.000,A,4257.8620,N,07253.6944,W,3.84,246.09,100313,,,A*79
$GPGGA,164704.000,4257.8616,N,07253.6958,W,1,07,1.3,635.6,M,-33.4,M,,0000*68
$GPGSA,A,3,22,09,14,21,15,18,24,,,,,,2.4,1.3,2.0*30
$GPRMC,164704.000,A,4257.8616,N,07253.6958,W,4.13,248.36,100313,,,A*7D
$GPGGA,164705.000,4257.8612,N,07253.6973,W,1,07,1.3,636.4,M,-33.4,M,,0000*65
$GPGSA,A,3,22,09,14,21,15,18,24,,,,,,2.4,1.3,2.0*30
$GPRMC,164705.000,A,4257.8612,N,07253.6973,W,4.14,246.01,100313,,,A*7C
$GPGGA,164706.000,4257.8607,N,07253.6986,W,1,07,1.3,636.9,M,-33.4,M,,0000*65
$GPGSA,A,3,22,09,14,21,15,18,24,,,,,,2.4,1.3,2.0*30
$GPRMC,164706.000,A,4257.8607,N,07253.6986,W,3.64,243.92,100313,,,A*7E
$GPGGA,164707.000,4257.8603,N,07253.7000,W,1,07,1.3,637.4,M,-33.4,M,,0000*6A
$GPGSA,A,3,22,09,14,21,15,18,24,,,,,,2.4,1.3,2.0*30
$GPGSV,3,1,12,18,78,326,31,26,66,269,,31,64,128,,24,62,095,36*72
$GPGSV,3,2,12,21,46,202,40,22,44,302,39,15,34,062,29,14,28,253,39*78
$GPGSV,3,3,12,09,21,042,31,19,08,309,,16,05,121,,28,01,027,*70
$GPRMC,164707.000,A,4257.8603,N,07253.7000,W,4.03,247.75,100313,,,A*76
$GPGGA,164708.000,4257.8598,N,07253.7014,W,1,07,1.3,637.7,M,-33.4,M,,0000*62
$GPGSA,A,3,22,09,14,21,15,18,24,,,,,,2.4,1.3,2.0*30
$GPRMC,164708.000,A,4257.8598,N,07253.7014,W,4.18,246.56,100313,,,A*77
$GPGGA,164709.000,4257.8593,N,07253.7029,W,1,07,1.3,638.1,M,-33.4,M,,0000*6F
$GPGSA,A,3,22,09,14,21,15,18,24,,,,,,2.4,1.3,2.0*30
$GPRMC,164709.000,A,4257.8593,N,07253.7029,W,3.95,243.49,100313,,,A*7A
$GPGGA,164710.000,4257.8589,N,07253.7043,W,1,07,1.3,638.6,M,-33.4,M,,0000*67
$GPGSA,A,3,22,09,14,21,15,18,24,,,,,,2.4,1.3,2.0*30
$GPRMC,164710.000,A,4257.8589,N,07253.7043,W,3.94,246.58,100313,,,A*71
$GPGGA,164711.000,4257.8584,N,07253.7057,W,1,07,1.3,638.9,M,-33.4,M,,0000*61
$GPGSA,A,3,22,09,14,21,15,18,24,,,,,,2.4,1.3,2.0*30
$GPRMC,164711.000,A,4257.8584,N,07253.7057,W,4.23,247.02,100313,,,A*7D
$GPGGA,164712.000,4257.8580,N,07253.7071,W,1,07,1.3,639.1,M,-33.4,M,,0000*6B
$GPGSA,A,3,22,09,14,21,15,18,24,,,,,,2.4,1.3,2.0*30
$GPGSV,3,1,12,18,78,326,31,26,66,269,,31,64,128,,24,62,095,36*72
$GPGSV,3,2,12,21,46,202,40,22,44,302,39,15,34,062,26,14,28,253,39*77
$GPGSV,3,3,12,09,21,042,34,19,08,309,,16,05,121,,28,01,027,*75
$GPRMC,164712.000,A,4257.8580,N,07253.7071,W,3.98,243.97,100313,,,A*71
$GPGGA,164713.000,4257.8575,N,07253.7085,W,1,07,1.3,639.6,M,-33.4,M,,0000*6C
$GPGSA,A,3,22,09,14,21,15,18,24,,,,,,2.4,1.3,2.0*30
$GPRMC,164713.000,A,4257.8575,N,07253.7085,W,3.76,243.67,100313,,,A*7E
$GPGGA,164714.000,4257.8571,N,07253.7098,W,1,07,1.3,639.9,M,-33.4,M,,0000*6C
$GPGSA,A,3,22,09,14,21,15,18,24,,,,,,2.4,1.3,2.0*30
$GPRMC,164714.000,A,4257.8571,N,07253.7098,W,3.83,247.86,100313,,,A*70
$GPGGA,164715.000,4257.8568,N,07253.7111,W,1,07,1.3,640.0,M,-33.4,M,,0000*62
$GPGSA,A,3,22,09,14,21,15,18,24,,,,,,2.4,1.3,2.0*30
$GPRMC,164715.000,A,4257.8568,N,07253.7111,W,3.79,246.16,100313,,,A*74
$GPGGA,164716.000,4257.8564,N,07253.7125,W,1,07,1.3,640.3,M,-33.4,M,,0000*69
$GPGSA,A,3,22,09,14,21,15,18,24,,,,,,2.4,1.3,2.0*30
$GPRMC,164716.000,A,4257.8564,N,07253.7125,W,3.79,243.34,100313,,,A*79
$GPGGA,164717.000,4257.8560,N,07253.7138,W,1,07,1.3,640.7,M,-33.4,M,,0000*64
$GPGSA,A,3,22,09,14,21,15,18,24,,,,,,2.4,1.3,2.0*30
$GPGSV,3,1,12,18,79,327,32,26,66,269,,31,64,127,,24,62,095,36*7E
$GPGSV,3,2,12,21,45,202,40,22,44,302,39,15,34,062,19,14,28,253,39*78
$GPGSV,3,3,12,09,21,042,25,19,08,309,,16,05,121,,28,01,027,*75
$GPRMC,164717.000,A,4257.8560,N,07253.7138,W,3.86,245.95,100313,,,A*7D
$GPGGA,164718.000,4257.8556,N,07253.7151,W,1,07,1.3,640.9,M,-33.4,M,,0000*6F
$GPGSA,A,3,22,09,14,21,15,18,24,,,,,,2.4,1.3,2.0*30
$GPRMC,164718.000,A,4257.8556,N,07253.7151,W,3.70,246.97,100313,,,A*70
$GPGGA,164719.000,4257.8552,N,07253.7164,W,1,07,1.3,641.1,M,-33.4,M,,0000*65
$GPGSA,A,3,22,09,14,21,15,18,24,,,,,,2.4,1.3,2.0*30
$GPRMC,164719.000,A,4257.8552,N,07253.7164,W,3.72,243.03,100313,,,A*79
$GPGGA,164720.000,4257.8548,N,07253.7178,W,1,07,1.3,641.4,M,-33.4,M,,0000*6C
$GPGSA,A,3,22,09,14,21,15,18,24,,,,,,2.4,1.3,2.0*30
$GPRMC,164720.000,A,4257.8548,N,07253.7178,W,3.77,245.63,100313,,,A*70
$GPGGA,164721.000,4257.8544,N,07253.7191,W,1,07,1.3,641.6,M,-33.4,M,,0000*64
$GPGSA,A,3,22,09,14,21,15,18,24,,,,,,2.4,1.3,2.0*30
$GPRMC,164721.000,A,4257.8544,N,07253.7191,W,3.83,247.22,100313,,,A*76
$GPGGA,164722.000,4257.8540,N,07253.7205,W,1,07,1.3,642.1,M,-33.4,M,,0000*69
$GPGSA,A,3,22,09,14,21,15,18,24,,,,,,2.4,1.3,2.0*30
$GPGSV,3,1,12,18,79,327,33,26,66,269,,31,64,127,,24,62,095,36*7F
$GPGSV,3,2,12,21,45,202,40,22,44,302,40,15,34,062,20,14,28,253,39*7C
$GPGSV,3,3,12,09,21,042,24,19,08,309,,16,05,121,,28,01,027,*74
$GPRMC,164722.000,A,4257.8540,N,07253.7205,W,4.06,243.79,100313,,,A*7F
$GPGGA,164723.000,4257.8536,N,07253.7219,W,1,07,1.3,642.3,M,-33.4,M,,0000*66
$GPGSA,A,3,22,09,14,21,15,18,24,,,,,,2.4,1.3,2.0*30
$GPRMC,164723.000,A,4257.8536,N,07253.7219,W,3.62,244.44,100313,,,A*7E
$GPGGA,164724.000,4257.8531,N,07253.7232,W,1,07,1.3,642.6,M,-33.4,M,,0000*6A
$GPGSA,A,3,22,09,14,21,15,18,24,,,,,,2.4,1.3,2.0*30
$GPRMC,164724.000,A,4257.8531,N,07253.7232,W,3.82,246.70,100313,,,A*7C
$GPGGA,164725.000,4257.8527,N,07253.7246,W,1,07,1.3,643.3,M,-33.4,M,,0000*6B
$GPGSA,A,3,22,09,14,21,15,18,24,,,,,,2.4,1.3,2.0*30
$GPRMC,164725.000,A,4257.8527,N,07253.7246,W,3.87,244.69,100313,,,A*76
$GPGGA,164726.000,4257.8523,N,07253.7260,W,1,07,1.3,643.7,M,-33.4,M,,0000*6C
$GPGSA,A,3,22,09,14,21,15,18,24,,,,,,2.4,1.3,2.0*30
$GPRMC,164726.000,A,4257.8523,N,07253.7260,W,3.82,242.75,100313,,,A*7B
$GPGGA,164727.000,4257.8519,N,07253.7273,W,1,06,1.4,644.1,M,-33.4,M,,0000*61
$GPGSA,A,3,22,14,21,15,18,24,,,,,,,2.9,1.4,2.5*36
$GPGSV,3,1,12,18,79,327,32,26,66,269,,31,64,127,,24,62,095,37*7F
$GPGSV,3,2,12,21,45,202,40,22,44,302,40,15,34,062,22,14,28,253,39*7E
$GPGSV,3,3,12,09,21,042,,19,08,309,,16,05,121,,28,01,027,*72
$GPRMC,164727.000,A,4257.8519,N,07253.7273,W,3.65,245.92,100313,,,A*76
$GPGGA,164728.000,4257.8515,N,07253.7286,W,1,07,1.3,644.6,M,-33.4,M,,0000*69
$GPGSA,A,3,22,09,14,21,15,18,24,,,,,,2.4,1.3,2.0*30
$GPRMC,164728.000,A,4257.8515,N,07253.7286,W,3.75,246.87,100313,,,A*79
$GPGGA,164729.000,4257.8511,N,07253.7299,W,1,07,1.3,644.9,M,-33.4,M,,0000*6D
$GPGSA,A,3,22,09,14,21,15,18,24,,,,,,2.4,1.3,2.0*30
$GPRMC,164729.000,A,4257.8511,N,07253.7299,W,3.66,243.73,100313,,,A*7E
$GPGGA,164730.000,4257.8507,N,07253.7313,W,1,07,1.3,645.0,M,-33.4,M,,0000*69
$GPGSA,A,3,22,09,14,21,15,18,24,,,,,,2.4,1.3,2.0*30
$GPRMC,164730.000,A,4257.8507,N,07253.7313,W,3.69,243.91,100313,,,A*71
$GPGGA,164731.000,4257.8503,N,07253.7326,W,1,07,1.3,645.4,M,-33.4,M,,0000*6E
$GPGSA,A,3,22,09,14,21,15,18,24,,,,,,2.4,1.3,2.0*30
$GPRMC,164731.000,A,4257.8503,N,07253.7326,W,3.86,246.70,100313,,,A*79
$GPGGA,164732.000,4257.8499,N,07253.7340,W,1,07,1.3,646.1,M,-33.4,M,,0000*69
$GPGSA,A,3,22,09,14,21,15,18,24,,,,,,2.4,1.3,2.0*30
$GPGSV,3,1,12,18,79,327,33,26,66,269,,31,64,127,,24,62,095,37*7E
$GPGSV,3,2,12,21,45,202,40,22,44,302,39,15,34,062,22,14,28,253,39*70
$GPGSV,3,3,12,09,21,042,28,19,08,309,,16,05,121,,28,01,027,*78
$GPRMC,164732.000,A,4257.8499,N,07253.7340,W,3.97,245.14,100313,,,A*79
$GPGGA,164733.000,4257.8494,N,07253.7354,W,1,07,1.3,646.9,M,-33.4,M,,0000*68
$GPGSA,A,3,22,09,14,21,15,18,24,,,,,,2.4,1.3,2.0*30
$GPRMC,164733.000,A,4257.8494,N,07253.7354,W,3.92,242.68,100313,,,A*79
$GPGGA,164734.000,4257.8490,N,07253.7368,W,1,07,1.3,647.7,M,-33.4,M,,0000*6B
$GPGSA,A,3,22,09,14,21,15,18,24,,,,,,2.4,1.3,2.0*30
$GPRMC,164734.000,A,4257.8490,N,07253.7368,W,3.83,245.07,100313,,,A*7B
$GPGGA,164735.000,4257.8486,N,07253.7381,W,1,07,1.3,648.1,M,-33.4,M,,0000*63
$GPGSA,A,3,22,09,14,21,15,18,24,,,,,,2.4,1.3,2.0*30
$GPRMC,164735.000,A,4257.8486,N,07253.7381,W,3.60,246.27,100313,,,A*76
$GPGGA,164736.000,4257.8482,N,07253.7393,W,1,07,1.3,648.4,M,-33.4,M,,0000*62
$GPGSA,A,3,22,09,14,21,15,18,24,,,,,,2.4,1.3,2.0*30
$GPRMC,164736.000,A,4257.8482,N,07253.7393,W,3.67,244.89,100313,,,A*73
$GPGGA,164737.000,4257.8478,N,07253.7407,W,1,07,1.3,648.7,M,-33.4,M,,0000*6F
$GPGSA,A,3,22,09,14,21,15,18,24,,,,,,2.4,1.3,2.0*30
$GPGSV,3,1,12,18,79,327,33,26,66,269,,31,64,127,,24,62,095,37*7E
$GPGSV,3,2,12,21,45,202,40,22,44,302,37,15,34,062,27,14,28,253,41*74
$GPGSV,3,3,12,09,21,042,28,19,08,309,,16,05,121,,28,01,027,*78
$GPRMC,164737.000,A,4257.8478,N,07253.7407,W,4.19,245.75,100313,,,A*71
$GPGGA,164738.000,4257.8474,N,07253.7422,W,1,07,1.3,649.1,M,-33.4,M,,0000*6C
$GPGSA,A,3,22,09,14,21,15,18,24,,,,,,2.4,1.3,2.0*30
$GPRMC,164738.000,A,4257.8474,N,07253.7422,W,3.97,247.64,100313,,,A*76
$GPGGA,164739.000,4257.8470,N,07253.7436,W,1,07,1.3,649.6,M,-33.4,M,,0000*6B
$GPGSA,A,3,22,09,14,21,15,18,24,,,,,,2.4,1.3,2.0*30
$GPRMC,164739.000,A,4257.8470,N,07253.7436,W,3.98,244.32,100313,,,A*79
$GPGGA,164740.000,4257.8464,N,07253.7453,W,1,07,1.3,650.9,M,-33.4,M,,0000*64
$GPGSA,A,3,22,09,14,21,15,18,24,,,,,,2.4,1.3,2.0*30
$GPRMC,164740.000,A,4257.8464,N,07253.7453,W,4.09,244.52,100313,,,A*78
$GPGGA,164741.000,4257.8459,N,07253.7468,W,1,07,1.3,651.1,M,-33.4,M,,0000*6A
$GPGSA,A,3,22,09,14,21,15,18,24,,,,,,2.4,1.3,2.0*30
$GPRMC,164741.000,A,4257.8459,N,07253.7468,W,3.93,246.88,100313,,,A*7E
$GPGGA,164742.000,4257.8455,N,07253.7482,W,1,07,1.3,651.7,M,-33.4,M,,0000*67
$GPGSA,A,3,22,09,14,21,15,18,24,,,,,,2.4,1.3,2.0*30
$GPGSV,3,1,12,18,79,327,33,26,66,269,,31,64,127,,24,62,095,37*7E
$GPGSV,3,2,12,21,45,202,40,22,44,302,38,15,34,062,22,14,28,253,40*7F
$GPGSV,3,3,12,09,21,042,23,19,08,309,,16,05,121,,28,01,027,*73
$GPRMC,164742.000,A,4257.8455,N,07253.7482,W,3.96,244.90,100313,,,A*7B
$GPGGA,164743.000,4257.8451,N,07253.7496,W,1,07,1.3,652.1,M,-33.4,M,,0000*62
$GPGSA,A,3,22,09,14,21,15,18,24,,,,,,2.4,1.3,2.0*30
$GPRMC,164743.000,A,4257.8451,N,07253.7496,W,4.20,244.16,100313,,,A*7F
$GPGGA,164744.000,4257.8446,N,07253.7511,W,1,07,1.3,652.6,M,-33.4,M,,0000*6A
$GPGSA,A,3,22,09,14,21,15,18,24,,,,,,2.4,1.3,2.0*30
$GPRMC,164744.000,A,4257.8446,N,07253.7511,W,3.99,246.19,100313,,,A*78
$GPGGA,164745.000,4257.8442,N,07253.7525,W,1,07,1.3,653.0,M,-33.4,M,,0000*6F
$GPGSA,A,3,22,09,14,21,15,18,24,,,,,,2.4,1.3,2.0*30
$GPRMC,164745.000,A,4257.8442,N,07253.7525,W,4.03,245.92,100313,,,A*7E
$GPGGA,164746.000,4257.8437,N,07253.7540,W,1,07,1.3,653.4,M,-33.4,M,,0000*69
$GPGSA,A,3,22,09,14,21,15,18,24,,,,,,2.4,1.3,2.0*30
$GPRMC,164746.000,A,4257.8437,N,07253.7540,W,4.01,245.89,100313,,,A*74
$GPGGA,164747.000,4257.8433,N,07253.7555,W,1,07,1.3,654.0,M,-33.4,M,,0000*6B
$GPGSA,A,3,22,09,14,21,15,18,24,,,,,,2.4,1.3,2.0*30
$GPGSV,3,1,12,18,79,327,33,26,66,269,,31,65,127,,24,62,094,37*7E
$GPGSV,3,2,12,21,45,202,40,22,44,302,39,15,34,062,25,14,28,253,40*79
$GPGSV,3,3,12,09,21,042,30,19,08,308,,28,01,027,,03,01,310,*70
$GPRMC,164747.000,A,4257.8433,N,07253.7555,W,4.00,245.78,100313,,,A*7A
$GPGGA,164748.000,4257.8428,N,07253.7569,W,1,07,1.3,654.4,M,-33.4,M,,0000*65
$GPGSA,A,3,22,09,14,21,15,18,24,,,,,,2.4,1.3,2.0*30
$GPRMC,164748.000,A,4257.8428,N,07253.7569,W,3.92,246.00,100313,,,A*70
$GPGGA,164749.000,4257.8424,N,07253.7583,W,1,07,1.3,654.9,M,-33.4,M,,0000*61
$GPGSA,A,3,22,09,14,21,15,18,24,,,,,,2.4,1.3,2.0*30
$GPRMC,164749.000,A,4257.8424,N,07253.7583,W,4.04,243.58,100313,,,A*79
$GPGGA,164750.000,4257.8419,N,07253.7598,W,1,07,1.3,655.3,M,-33.4,M,,0000*66
$GPGSA,A,3,22,09,14,21,15,18,24,,,,,,2.4,1.3,2.0*30
$GPRMC,164750.000,A,4257.8419,N,07253.7598,W,4.13,245.34,100313,,,A*7F
$GPGGA,164751.000,4257.8415,N,07253.7612,W,1,07,1.3,655.9,M,-33.4,M,,0000*60
$GPGSA,A,3,22,09,14,21,15,18,24,,,,,,2.4,1.3,2.0*30
$GPRMC,164751.000,A,4257.8415,N,07253.7612,W,4.04,246.79,100313,,,A*7F
$GPGGA,164752.000,4257.8410,N,07253.7627,W,1,07,1.3,656.4,M,-33.4,M,,0000*6E
$GPGSA,A,3,22,09,14,21,15,18,24,,,,,,2.4,1.3,2.0*30
$GPGSV,3,1,12,18,79,327,32,26,66,269,,31,65,127,,24,62,094,37*7F
$GPGSV,3,2,12,21,45,202,40,22,44,302,39,15,34,062,25,14,28,253,39*77
$GPGSV,3,3,12,09,21,042,29,19,08,308,,28,01,027,,03,01,310,*78
$GPRMC,164752.000,A,4257.8410,N,07253.7627,W,4.02,244.01,100313,,,A*74
$GPGGA,164753.000,4257.8405,N,07253.7642,W,1,07,1.3,657.1,M,-33.4,M,,0000*6C
$GPGSA,A,3,22,09,14,21,15,18,24,,,,,,2.4,1.3,2.0*30
$GPRMC,164753.000,A,4257.8405,N,07253.7642,W,4.14,244.29,100313,,,A*7F
$GPGGA,164754.000,4257.8401,N,07253.7656,W,1,07,1.3,657.7,M,-33.4,M,,0000*6C
$GPGSA,A,3,22,09,14,21,15,18,24,,,,,,2.4,1.3,2.0*30
$GPRMC,164754.000,A,4257.8401,N,07253.7656,W,3.90,246.19,100313,,,A*73
$GPGGA,164755.000,4257.8397,N,07253.7670,W,1,07,1.3,658.0,M,-33.4,M,,0000*69
$GPGSA,A,3,22,09,14,21,15,18,24,,,,,,2.4,1.3,2.0*30
$GPRMC,164755.000,A,4257.8397,N,07253.7670,W,3.82,245.69,100313,,,A*79
$GPGGA,164756.000,4257.8392,N,07253.7684,W,1,07,1.3,658.6,M,-33.4,M,,0000*62
$GPGSA,A,3,22,09,14,21,15,18,24,,,,,,2.4,1.3,2.0*30
$GPRMC,164756.000,A,4257.8392,N,07253.7684,W,4.00,243.18,100313,,,A*79
$GPGGA,164757.000,4257.8388,N,07253.7698,W,1,07,1.3,659.0,M,-33.4,M,,0000*62
$GPGSA,A,3,22,09,14,21,15,18,24,,,,,,2.4,1.3,2.0*30
$GPGSV,3,1,12,18,79,327,33,26,66,269,,31,65,127,,24,62,094,37*7E
$GPGSV,3,2,12,21,45,202,40,22,44,302,39,15,34,062,21,14,28,253,39*73
$GPGSV,3,3,12,09,21,042,26,19,08,308,,28,01,027,,03,01,310,*77
$GPRMC,164757.000,A,4257.8388,N,07253.7698,W,3.86,245.59,100313,,,A*74
